{"asset_id": "PWR00001", "asset_name": "AES Guayama Coal Plant", "asset_type": "power", "asset_subtype": "Generation (Coal)", "municipality": "Guayama", "geometry_type": "point", "status": "active", "source_ref": "EIA Form 860", "evidence_tier": "T1", "confidence": 95, "review_status": "accepted", "operator": "Mixed/IPP", "lat": 17.979, "lon": -66.108}
{"asset_id": "PWR00002", "asset_name": "EcoElectrica LNG Plant Pe\u00f1uelas", "asset_type": "power", "asset_subtype": "Generation (Natural Gas)", "municipality": "Pe\u00f1uelas", "geometry_type": "point", "status": "active", "source_ref": "EIA Form 860", "evidence_tier": "T1", "confidence": 95, "review_status": "accepted", "operator": "Mixed/IPP", "lat": 18.063, "lon": -66.722}
{"asset_id": "PWR00003", "asset_name": "Costa Sur Combined Cycle (PREPA)", "asset_type": "power", "asset_subtype": "Generation (Fuel Oil/Gas)", "municipality": "Guayanilla", "geometry_type": "point", "status": "active", "source_ref": "EIA Form 860", "evidence_tier": "T1", "confidence": 92, "review_status": "accepted", "operator": "PREPA", "lat": 17.985, "lon": -66.745}
{"asset_id": "PWR00004", "asset_name": "Palo Seco Power Plant (PREPA)", "asset_type": "power", "asset_subtype": "Generation (Fuel Oil)", "municipality": "Toa Baja", "geometry_type": "point", "status": "active", "source_ref": "EIA Form 860", "evidence_tier": "T1", "confidence": 92, "review_status": "accepted", "operator": "PREPA", "lat": 18.428, "lon": -66.149}
{"asset_id": "PWR00005", "asset_name": "San Juan Combined Cycle (PREPA)", "asset_type": "power", "asset_subtype": "Generation (Natural Gas)", "municipality": "San Juan", "geometry_type": "point", "status": "active", "source_ref": "EIA Form 860", "evidence_tier": "T1", "confidence": 92, "review_status": "accepted", "operator": "PREPA", "lat": 18.457, "lon": -66.096}
{"asset_id": "PWR00006", "asset_name": "Aguirre Steam Electric (PREPA)", "asset_type": "power", "asset_subtype": "Generation (Fuel Oil)", "municipality": "Salinas", "geometry_type": "point", "status": "active", "source_ref": "EIA Form 860", "evidence_tier": "T1", "confidence": 92, "review_status": "accepted", "operator": "PREPA", "lat": 17.951, "lon": -66.231}
{"asset_id": "PWR00007", "asset_name": "Mayag\u00fcez Power Plant (PREPA)", "asset_type": "power", "asset_subtype": "Generation (Fuel Oil)", "municipality": "Mayag\u00fcez", "geometry_type": "point", "status": "active", "source_ref": "EIA Form 860", "evidence_tier": "T2", "confidence": 88, "review_status": "accepted", "operator": "PREPA", "lat": 18.198, "lon": -67.148}
{"asset_id": "PWR00008", "asset_name": "Dos Bocas Hydroelectric", "asset_type": "power", "asset_subtype": "Generation (Water)", "municipality": "Utuado", "geometry_type": "point", "status": "active", "source_ref": "EIA Form 860", "evidence_tier": "T1", "confidence": 90, "review_status": "accepted", "operator": "Mixed/IPP", "lat": 18.283, "lon": -66.638}
{"asset_id": "PWR00009", "asset_name": "Caonillas Hydroelectric", "asset_type": "power", "asset_subtype": "Generation (Water)", "municipality": "Utuado", "geometry_type": "point", "status": "active", "source_ref": "EIA Form 860", "evidence_tier": "T1", "confidence": 90, "review_status": "accepted", "operator": "Mixed/IPP", "lat": 18.238, "lon": -66.577}
{"asset_id": "PWR00010", "asset_name": "Garzas Hydroelectric", "asset_type": "power", "asset_subtype": "Generation (Water)", "municipality": "Adjuntas", "geometry_type": "point", "status": "active", "source_ref": "EIA Form 860", "evidence_tier": "T2", "confidence": 88, "review_status": "accepted", "operator": "Mixed/IPP", "lat": 18.157, "lon": -66.707}
{"asset_id": "PWR00011", "asset_name": "Guayo Hydroelectric", "asset_type": "power", "asset_subtype": "Generation (Water)", "municipality": "Casta\u00f1er", "geometry_type": "point", "status": "active", "source_ref": "EIA Form 860", "evidence_tier": "T2", "confidence": 88, "review_status": "accepted", "operator": "Mixed/IPP", "lat": 18.08, "lon": -66.833}
{"asset_id": "PWR00012", "asset_name": "Yauco Hydroelectric (Luchetti)", "asset_type": "power", "asset_subtype": "Generation (Water)", "municipality": "Yauco", "geometry_type": "point", "status": "active", "source_ref": "EIA Form 860", "evidence_tier": "T2", "confidence": 88, "review_status": "accepted", "operator": "Mixed/IPP", "lat": 18.039, "lon": -66.854}
{"asset_id": "PWR00013", "asset_name": "Bayam\u00f3n CT (PREPA)", "asset_type": "power", "asset_subtype": "Generation (Natural Gas)", "municipality": "Bayam\u00f3n", "geometry_type": "point", "status": "active", "source_ref": "EIA Form 860", "evidence_tier": "T2", "confidence": 85, "review_status": "accepted", "operator": "PREPA", "lat": 18.399, "lon": -66.155}
{"asset_id": "PWR00014", "asset_name": "Cambalache CT", "asset_type": "power", "asset_subtype": "Generation (Natural Gas)", "municipality": "Barceloneta", "geometry_type": "point", "status": "active", "source_ref": "EIA Form 860", "evidence_tier": "T2", "confidence": 85, "review_status": "accepted", "operator": "Mixed/IPP", "lat": 18.446, "lon": -66.537}
{"asset_id": "PWR00015", "asset_name": "Windmar Solar Farm Humacao", "asset_type": "power", "asset_subtype": "Generation (Solar PV)", "municipality": "Humacao", "geometry_type": "point", "status": "active", "source_ref": "EIA Form 860 2024", "evidence_tier": "T2", "confidence": 82, "review_status": "accepted", "operator": "Mixed/IPP", "lat": 18.149, "lon": -65.827}
{"asset_id": "PWR00016", "asset_name": "Windmar Solar Farm Salinas", "asset_type": "power", "asset_subtype": "Generation (Solar PV)", "municipality": "Salinas", "geometry_type": "point", "status": "active", "source_ref": "EIA Form 860 2024", "evidence_tier": "T2", "confidence": 82, "review_status": "accepted", "operator": "Mixed/IPP", "lat": 17.979, "lon": -66.299}
{"asset_id": "PWR00017", "asset_name": "Tesla/SunPower Isabela", "asset_type": "power", "asset_subtype": "Generation (Solar+Battery)", "municipality": "Isabela", "geometry_type": "point", "status": "active", "source_ref": "EIA Form 860 2024", "evidence_tier": "T2", "confidence": 80, "review_status": "accepted", "operator": "Mixed/IPP", "lat": 18.5, "lon": -67.021}
{"asset_id": "PWR00018", "asset_name": "PREPA Substation Arecibo", "asset_type": "power", "asset_subtype": "Substation", "municipality": "Arecibo", "geometry_type": "point", "status": "active", "source_ref": "HIFLD Open Data", "evidence_tier": "T2", "confidence": 85, "review_status": "accepted", "operator": "PREPA", "lat": 18.465, "lon": -66.723}
{"asset_id": "PWR00019", "asset_name": "PREPA Substation Aguirre", "asset_type": "power", "asset_subtype": "Substation", "municipality": "Salinas", "geometry_type": "point", "status": "active", "source_ref": "HIFLD Open Data", "evidence_tier": "T2", "confidence": 88, "review_status": "accepted", "operator": "PREPA", "lat": 17.951, "lon": -66.231}
{"asset_id": "PWR00020", "asset_name": "PREPA Substation Caguas Norte", "asset_type": "power", "asset_subtype": "Substation", "municipality": "Caguas", "geometry_type": "point", "status": "active", "source_ref": "HIFLD Open Data", "evidence_tier": "T2", "confidence": 85, "review_status": "accepted", "operator": "PREPA", "lat": 18.238, "lon": -66.037}
{"asset_id": "PWR00021", "asset_name": "PREPA Substation Cambalache", "asset_type": "power", "asset_subtype": "Substation", "municipality": "Barceloneta", "geometry_type": "point", "status": "active", "source_ref": "HIFLD Open Data", "evidence_tier": "T2", "confidence": 88, "review_status": "accepted", "operator": "PREPA", "lat": 18.446, "lon": -66.537}
{"asset_id": "PWR00022", "asset_name": "PREPA Substation Carolina", "asset_type": "power", "asset_subtype": "Substation", "municipality": "Carolina", "geometry_type": "point", "status": "active", "source_ref": "HIFLD Open Data", "evidence_tier": "T2", "confidence": 85, "review_status": "accepted", "operator": "PREPA", "lat": 18.381, "lon": -65.958}
{"asset_id": "PWR00023", "asset_name": "PREPA Substation Isabela", "asset_type": "power", "asset_subtype": "Substation", "municipality": "Isabela", "geometry_type": "point", "status": "active", "source_ref": "HIFLD Open Data", "evidence_tier": "T2", "confidence": 82, "review_status": "accepted", "operator": "PREPA", "lat": 18.5, "lon": -67.021}
{"asset_id": "PWR00024", "asset_name": "PREPA Substation Jobos", "asset_type": "power", "asset_subtype": "Substation", "municipality": "Guayama", "geometry_type": "point", "status": "active", "source_ref": "HIFLD Open Data", "evidence_tier": "T2", "confidence": 85, "review_status": "accepted", "operator": "PREPA", "lat": 17.945, "lon": -66.185}
{"asset_id": "PWR00025", "asset_name": "PREPA Substation Juncos", "asset_type": "power", "asset_subtype": "Substation", "municipality": "Juncos", "geometry_type": "point", "status": "active", "source_ref": "HIFLD Open Data", "evidence_tier": "T2", "confidence": 82, "review_status": "accepted", "operator": "PREPA", "lat": 18.227, "lon": -65.921}
{"asset_id": "PWR00026", "asset_name": "PREPA Substation Mayag\u00fcez", "asset_type": "power", "asset_subtype": "Substation", "municipality": "Mayag\u00fcez", "geometry_type": "point", "status": "active", "source_ref": "HIFLD Open Data", "evidence_tier": "T2", "confidence": 85, "review_status": "accepted", "operator": "PREPA", "lat": 18.201, "lon": -67.14}
{"asset_id": "PWR00027", "asset_name": "PREPA Substation Palo Seco", "asset_type": "power", "asset_subtype": "Substation", "municipality": "Toa Baja", "geometry_type": "point", "status": "active", "source_ref": "HIFLD Open Data", "evidence_tier": "T2", "confidence": 88, "review_status": "accepted", "operator": "PREPA", "lat": 18.432, "lon": -66.153}
{"asset_id": "PWR00028", "asset_name": "PREPA Substation Ponce", "asset_type": "power", "asset_subtype": "Substation", "municipality": "Ponce", "geometry_type": "point", "status": "active", "source_ref": "HIFLD Open Data", "evidence_tier": "T2", "confidence": 85, "review_status": "accepted", "operator": "PREPA", "lat": 18.011, "lon": -66.614}
{"asset_id": "PWR00029", "asset_name": "PREPA Substation San Juan Norte", "asset_type": "power", "asset_subtype": "Substation", "municipality": "San Juan", "geometry_type": "point", "status": "active", "source_ref": "HIFLD Open Data", "evidence_tier": "T2", "confidence": 88, "review_status": "accepted", "operator": "PREPA", "lat": 18.456, "lon": -66.105}
{"asset_id": "PWR00030", "asset_name": "PREPA Substation Utuado", "asset_type": "power", "asset_subtype": "Substation", "municipality": "Utuado", "geometry_type": "point", "status": "active", "source_ref": "HIFLD Open Data", "evidence_tier": "T2", "confidence": 80, "review_status": "accepted", "operator": "PREPA", "lat": 18.265, "lon": -66.7}
{"asset_id": "PWR00031", "asset_name": "PREPA Substation Yauco", "asset_type": "power", "asset_subtype": "Substation", "municipality": "Yauco", "geometry_type": "point", "status": "active", "source_ref": "HIFLD Open Data", "evidence_tier": "T2", "confidence": 82, "review_status": "accepted", "operator": "PREPA", "lat": 18.035, "lon": -66.85}
{"asset_id": "PWR00032", "asset_name": "Transmission Corridor: Aguirre\u2013Caguas (345kV)", "asset_type": "power", "asset_subtype": "Transmission Corridor", "municipality": "Salinas/Caguas", "geometry_type": "point", "status": "active", "source_ref": "HIFLD Open Data", "evidence_tier": "T2", "confidence": 85, "review_status": "accepted", "operator": "Mixed/IPP", "lat": 18.1, "lon": -66.13}
{"asset_id": "PWR00033", "asset_name": "Transmission Corridor: San Juan\u2013Palo Seco (230kV)", "asset_type": "power", "asset_subtype": "Transmission Corridor", "municipality": "San Juan/Toa Baja", "geometry_type": "point", "status": "active", "source_ref": "HIFLD Open Data", "evidence_tier": "T2", "confidence": 85, "review_status": "accepted", "operator": "Mixed/IPP", "lat": 18.443, "lon": -66.12}
{"asset_id": "PWR00034", "asset_name": "Transmission Corridor: Cambalache\u2013Arecibo (115kV)", "asset_type": "power", "asset_subtype": "Transmission Corridor", "municipality": "Barceloneta/Arecibo", "geometry_type": "point", "status": "active", "source_ref": "HIFLD Open Data", "evidence_tier": "T2", "confidence": 82, "review_status": "accepted", "operator": "Mixed/IPP", "lat": 18.455, "lon": -66.63}
{"asset_id": "PWR00035", "asset_name": "Transmission Corridor: Dos Bocas\u2013Caonillas Hydro (115kV)", "asset_type": "power", "asset_subtype": "Transmission Corridor", "municipality": "Utuado", "geometry_type": "point", "status": "active", "source_ref": "HIFLD Open Data", "evidence_tier": "T2", "confidence": 82, "review_status": "accepted", "operator": "Mixed/IPP", "lat": 18.26, "lon": -66.61}
{"asset_id": "PWR00036", "asset_name": "Transmission Corridor: Costa Sur\u2013Yauco (115kV)", "asset_type": "power", "asset_subtype": "Transmission Corridor", "municipality": "Guayanilla/Yauco", "geometry_type": "point", "status": "active", "source_ref": "HIFLD Open Data", "evidence_tier": "T2", "confidence": 82, "review_status": "accepted", "operator": "Mixed/IPP", "lat": 18.02, "lon": -66.78}
{"asset_id": "PWR00037", "asset_name": "Transmission Corridor: Aguirre\u2013Jobos (230kV)", "asset_type": "power", "asset_subtype": "Transmission Corridor", "municipality": "Salinas/Guayama", "geometry_type": "point", "status": "active", "source_ref": "HIFLD Open Data", "evidence_tier": "T2", "confidence": 85, "review_status": "accepted", "operator": "Mixed/IPP", "lat": 17.96, "lon": -66.2}
{"asset_id": "PWR00038", "asset_name": "Transmission Corridor: Carolina\u2013Fajardo (115kV)", "asset_type": "power", "asset_subtype": "Transmission Corridor", "municipality": "Carolina/Fajardo", "geometry_type": "point", "status": "active", "source_ref": "HIFLD Open Data", "evidence_tier": "T2", "confidence": 80, "review_status": "accepted", "operator": "Mixed/IPP", "lat": 18.36, "lon": -65.81}
{"asset_id": "PWR00039", "asset_name": "Transmission Corridor: Mayag\u00fcez\u2013Aguadilla (115kV)", "asset_type": "power", "asset_subtype": "Transmission Corridor", "municipality": "Mayag\u00fcez/Aguadilla", "geometry_type": "point", "status": "active", "source_ref": "HIFLD Open Data", "evidence_tier": "T2", "confidence": 80, "review_status": "accepted", "operator": "Mixed/IPP", "lat": 18.31, "lon": -67.15}
