{"asset_id": "PWR00001", "asset_name": "AES Guayama Coal Plant", "asset_type": "power", "asset_subtype": "Generation (Coal)", "municipality": "Guayama", "geometry_type": "point", "status": "active", "source_ref": "EIA Form 860", "evidence_tier": "T1", "confidence": 95, "review_status": "accepted", "operator": "Mixed/IPP", "lat": 17.979, "lon": -66.108}
{"asset_id": "PWR00002", "asset_name": "EcoElectrica LNG Plant Pe\u00f1uelas", "asset_type": "power", "asset_subtype": "Generation (Natural Gas)", "municipality": "Pe\u00f1uelas", "geometry_type": "point", "status": "active", "source_ref": "EIA Form 860", "evidence_tier": "T1", "confidence": 95, "review_status": "accepted", "operator": "Mixed/IPP", "lat": 18.063, "lon": -66.722}
{"asset_id": "PWR00003", "asset_name": "Costa Sur Combined Cycle (PREPA)", "asset_type": "power", "asset_subtype": "Generation (Fuel Oil/Gas)", "municipality": "Guayanilla", "geometry_type": "point", "status": "active", "source_ref": "EIA Form 860", "evidence_tier": "T1", "confidence": 92, "review_status": "accepted", "operator": "PREPA", "lat": 17.985, "lon": -66.745}
{"asset_id": "PWR00004", "asset_name": "Palo Seco Power Plant (PREPA)", "asset_type": "power", "asset_subtype": "Generation (Fuel Oil)", "municipality": "Toa Baja", "geometry_type": "point", "status": "active", "source_ref": "EIA Form 860", "evidence_tier": "T1", "confidence": 92, "review_status": "accepted", "operator": "PREPA", "lat": 18.428, "lon": -66.149}
{"asset_id": "PWR00005", "asset_name": "San Juan Combined Cycle (PREPA)", "asset_type": "power", "asset_subtype": "Generation (Natural Gas)", "municipality": "San Juan", "geometry_type": "point", "status": "active", "source_ref": "EIA Form 860", "evidence_tier": "T1", "confidence": 92, "review_status": "accepted", "operator": "PREPA", "lat": 18.457, "lon": -66.096}
{"asset_id": "PWR00006", "asset_name": "Aguirre Steam Electric (PREPA)", "asset_type": "power", "asset_subtype": "Generation (Fuel Oil)", "municipality": "Salinas", "geometry_type": "point", "status": "active", "source_ref": "EIA Form 860", "evidence_tier": "T1", "confidence": 92, "review_status": "accepted", "operator": "PREPA", "lat": 17.951, "lon": -66.231}
{"asset_id": "PWR00007", "asset_name": "Mayag\u00fcez Power Plant (PREPA)", "asset_type": "power", "asset_subtype": "Generation (Fuel Oil)", "municipality": "Mayag\u00fcez", "geometry_type": "point", "status": "active", "source_ref": "EIA Form 860", "evidence_tier": "T2", "confidence": 88, "review_status": "accepted", "operator": "PREPA", "lat": 18.198, "lon": -67.148}
{"asset_id": "PWR00008", "asset_name": "Dos Bocas Hydroelectric", "asset_type": "power", "asset_subtype": "Generation (Water)", "municipality": "Utuado", "geometry_type": "point", "status": "active", "source_ref": "EIA Form 860", "evidence_tier": "T1", "confidence": 90, "review_status": "accepted", "operator": "Mixed/IPP", "lat": 18.283, "lon": -66.638}
{"asset_id": "PWR00009", "asset_name": "Caonillas Hydroelectric", "asset_type": "power", "asset_subtype": "Generation (Water)", "municipality": "Utuado", "geometry_type": "point", "status": "active", "source_ref": "EIA Form 860", "evidence_tier": "T1", "confidence": 90, "review_status": "accepted", "operator": "Mixed/IPP", "lat": 18.238, "lon": -66.577}
{"asset_id": "PWR00010", "asset_name": "Garzas Hydroelectric", "asset_type": "power", "asset_subtype": "Generation (Water)", "municipality": "Adjuntas", "geometry_type": "point", "status": "active", "source_ref": "EIA Form 860", "evidence_tier": "T2", "confidence": 88, "review_status": "accepted", "operator": "Mixed/IPP", "lat": 18.157, "lon": -66.707}
{"asset_id": "PWR00011", "asset_name": "Guayo Hydroelectric", "asset_type": "power", "asset_subtype": "Generation (Water)", "municipality": "Casta\u00f1er", "geometry_type": "point", "status": "active", "source_ref": "EIA Form 860", "evidence_tier": "T2", "confidence": 88, "review_status": "accepted", "operator": "Mixed/IPP", "lat": 18.08, "lon": -66.833}
{"asset_id": "PWR00012", "asset_name": "Yauco Hydroelectric (Luchetti)", "asset_type": "power", "asset_subtype": "Generation (Water)", "municipality": "Yauco", "geometry_type": "point", "status": "active", "source_ref": "EIA Form 860", "evidence_tier": "T2", "confidence": 88, "review_status": "accepted", "operator": "Mixed/IPP", "lat": 18.039, "lon": -66.854}
{"asset_id": "PWR00013", "asset_name": "Bayam\u00f3n CT (PREPA)", "asset_type": "power", "asset_subtype": "Generation (Natural Gas)", "municipality": "Bayam\u00f3n", "geometry_type": "point", "status": "active", "source_ref": "EIA Form 860", "evidence_tier": "T2", "confidence": 85, "review_status": "accepted", "operator": "PREPA", "lat": 18.399, "lon": -66.155}
{"asset_id": "PWR00014", "asset_name": "Cambalache CT", "asset_type": "power", "asset_subtype": "Generation (Natural Gas)", "municipality": "Barceloneta", "geometry_type": "point", "status": "active", "source_ref": "EIA Form 860", "evidence_tier": "T2", "confidence": 85, "review_status": "accepted", "operator": "Mixed/IPP", "lat": 18.446, "lon": -66.537}
{"asset_id": "PWR00015", "asset_name": "Windmar Solar Farm Humacao", "asset_type": "power", "asset_subtype": "Generation (Solar PV)", "municipality": "Humacao", "geometry_type": "point", "status": "active", "source_ref": "EIA Form 860 2024", "evidence_tier": "T2", "confidence": 82, "review_status": "accepted", "operator": "Mixed/IPP", "lat": 18.149, "lon": -65.827}
{"asset_id": "PWR00016", "asset_name": "Windmar Solar Farm Salinas", "asset_type": "power", "asset_subtype": "Generation (Solar PV)", "municipality": "Salinas", "geometry_type": "point", "status": "active", "source_ref": "EIA Form 860 2024", "evidence_tier": "T2", "confidence": 82, "review_status": "accepted", "operator": "Mixed/IPP", "lat": 17.979, "lon": -66.299}
{"asset_id": "PWR00017", "asset_name": "Tesla/SunPower Isabela", "asset_type": "power", "asset_subtype": "Generation (Solar+Battery)", "municipality": "Isabela", "geometry_type": "point", "status": "active", "source_ref": "EIA Form 860 2024", "evidence_tier": "T2", "confidence": 80, "review_status": "accepted", "operator": "Mixed/IPP", "lat": 18.5, "lon": -67.021}
{"asset_id": "PWR00018", "asset_name": "PREPA Substation Arecibo", "asset_type": "power", "asset_subtype": "Substation", "municipality": "Arecibo", "geometry_type": "point", "status": "active", "source_ref": "HIFLD Open Data", "evidence_tier": "T2", "confidence": 85, "review_status": "accepted", "operator": "PREPA", "lat": 18.465, "lon": -66.723}
{"asset_id": "PWR00019", "asset_name": "PREPA Substation Aguirre", "asset_type": "power", "asset_subtype": "Substation", "municipality": "Salinas", "geometry_type": "point", "status": "active", "source_ref": "HIFLD Open Data", "evidence_tier": "T2", "confidence": 88, "review_status": "accepted", "operator": "PREPA", "lat": 17.951, "lon": -66.231}
{"asset_id": "PWR00020", "asset_name": "PREPA Substation Caguas Norte", "asset_type": "power", "asset_subtype": "Substation", "municipality": "Caguas", "geometry_type": "point", "status": "active", "source_ref": "HIFLD Open Data", "evidence_tier": "T2", "confidence": 85, "review_status": "accepted", "operator": "PREPA", "lat": 18.238, "lon": -66.037}
{"asset_id": "PWR00021", "asset_name": "PREPA Substation Cambalache", "asset_type": "power", "asset_subtype": "Substation", "municipality": "Barceloneta", "geometry_type": "point", "status": "active", "source_ref": "HIFLD Open Data", "evidence_tier": "T2", "confidence": 88, "review_status": "accepted", "operator": "PREPA", "lat": 18.446, "lon": -66.537}
{"asset_id": "PWR00022", "asset_name": "PREPA Substation Carolina", "asset_type": "power", "asset_subtype": "Substation", "municipality": "Carolina", "geometry_type": "point", "status": "active", "source_ref": "HIFLD Open Data", "evidence_tier": "T2", "confidence": 85, "review_status": "accepted", "operator": "PREPA", "lat": 18.381, "lon": -65.958}
{"asset_id": "PWR00023", "asset_name": "PREPA Substation Isabela", "asset_type": "power", "asset_subtype": "Substation", "municipality": "Isabela", "geometry_type": "point", "status": "active", "source_ref": "HIFLD Open Data", "evidence_tier": "T2", "confidence": 82, "review_status": "accepted", "operator": "PREPA", "lat": 18.5, "lon": -67.021}
{"asset_id": "PWR00024", "asset_name": "PREPA Substation Jobos", "asset_type": "power", "asset_subtype": "Substation", "municipality": "Guayama", "geometry_type": "point", "status": "active", "source_ref": "HIFLD Open Data", "evidence_tier": "T2", "confidence": 85, "review_status": "accepted", "operator": "PREPA", "lat": 17.945, "lon": -66.185}
{"asset_id": "PWR00025", "asset_name": "PREPA Substation Juncos", "asset_type": "power", "asset_subtype": "Substation", "municipality": "Juncos", "geometry_type": "point", "status": "active", "source_ref": "HIFLD Open Data", "evidence_tier": "T2", "confidence": 82, "review_status": "accepted", "operator": "PREPA", "lat": 18.227, "lon": -65.921}
{"asset_id": "PWR00026", "asset_name": "PREPA Substation Mayag\u00fcez", "asset_type": "power", "asset_subtype": "Substation", "municipality": "Mayag\u00fcez", "geometry_type": "point", "status": "active", "source_ref": "HIFLD Open Data", "evidence_tier": "T2", "confidence": 85, "review_status": "accepted", "operator": "PREPA", "lat": 18.201, "lon": -67.14}
{"asset_id": "PWR00027", "asset_name": "PREPA Substation Palo Seco", "asset_type": "power", "asset_subtype": "Substation", "municipality": "Toa Baja", "geometry_type": "point", "status": "active", "source_ref": "HIFLD Open Data", "evidence_tier": "T2", "confidence": 88, "review_status": "accepted", "operator": "PREPA", "lat": 18.432, "lon": -66.153}
{"asset_id": "PWR00028", "asset_name": "PREPA Substation Ponce", "asset_type": "power", "asset_subtype": "Substation", "municipality": "Ponce", "geometry_type": "point", "status": "active", "source_ref": "HIFLD Open Data", "evidence_tier": "T2", "confidence": 85, "review_status": "accepted", "operator": "PREPA", "lat": 18.011, "lon": -66.614}
{"asset_id": "PWR00029", "asset_name": "PREPA Substation San Juan Norte", "asset_type": "power", "asset_subtype": "Substation", "municipality": "San Juan", "geometry_type": "point", "status": "active", "source_ref": "HIFLD Open Data", "evidence_tier": "T2", "confidence": 88, "review_status": "accepted", "operator": "PREPA", "lat": 18.456, "lon": -66.105}
{"asset_id": "PWR00030", "asset_name": "PREPA Substation Utuado", "asset_type": "power", "asset_subtype": "Substation", "municipality": "Utuado", "geometry_type": "point", "status": "active", "source_ref": "HIFLD Open Data", "evidence_tier": "T2", "confidence": 80, "review_status": "accepted", "operator": "PREPA", "lat": 18.265, "lon": -66.7}
{"asset_id": "PWR00031", "asset_name": "PREPA Substation Yauco", "asset_type": "power", "asset_subtype": "Substation", "municipality": "Yauco", "geometry_type": "point", "status": "active", "source_ref": "HIFLD Open Data", "evidence_tier": "T2", "confidence": 82, "review_status": "accepted", "operator": "PREPA", "lat": 18.035, "lon": -66.85}
{"asset_id": "PWR00032", "asset_name": "Transmission Corridor: Aguirre\u2013Caguas (345kV)", "asset_type": "power", "asset_subtype": "Transmission Corridor", "municipality": "Salinas/Caguas", "geometry_type": "point", "status": "active", "source_ref": "HIFLD Open Data", "evidence_tier": "T2", "confidence": 85, "review_status": "accepted", "operator": "Mixed/IPP", "lat": 18.1, "lon": -66.13}
{"asset_id": "PWR00033", "asset_name": "Transmission Corridor: San Juan\u2013Palo Seco (230kV)", "asset_type": "power", "asset_subtype": "Transmission Corridor", "municipality": "San Juan/Toa Baja", "geometry_type": "point", "status": "active", "source_ref": "HIFLD Open Data", "evidence_tier": "T2", "confidence": 85, "review_status": "accepted", "operator": "Mixed/IPP", "lat": 18.443, "lon": -66.12}
{"asset_id": "PWR00034", "asset_name": "Transmission Corridor: Cambalache\u2013Arecibo (115kV)", "asset_type": "power", "asset_subtype": "Transmission Corridor", "municipality": "Barceloneta/Arecibo", "geometry_type": "point", "status": "active", "source_ref": "HIFLD Open Data", "evidence_tier": "T2", "confidence": 82, "review_status": "accepted", "operator": "Mixed/IPP", "lat": 18.455, "lon": -66.63}
{"asset_id": "PWR00035", "asset_name": "Transmission Corridor: Dos Bocas\u2013Caonillas Hydro (115kV)", "asset_type": "power", "asset_subtype": "Transmission Corridor", "municipality": "Utuado", "geometry_type": "point", "status": "active", "source_ref": "HIFLD Open Data", "evidence_tier": "T2", "confidence": 82, "review_status": "accepted", "operator": "Mixed/IPP", "lat": 18.26, "lon": -66.61}
{"asset_id": "PWR00036", "asset_name": "Transmission Corridor: Costa Sur\u2013Yauco (115kV)", "asset_type": "power", "asset_subtype": "Transmission Corridor", "municipality": "Guayanilla/Yauco", "geometry_type": "point", "status": "active", "source_ref": "HIFLD Open Data", "evidence_tier": "T2", "confidence": 82, "review_status": "accepted", "operator": "Mixed/IPP", "lat": 18.02, "lon": -66.78}
{"asset_id": "PWR00037", "asset_name": "Transmission Corridor: Aguirre\u2013Jobos (230kV)", "asset_type": "power", "asset_subtype": "Transmission Corridor", "municipality": "Salinas/Guayama", "geometry_type": "point", "status": "active", "source_ref": "HIFLD Open Data", "evidence_tier": "T2", "confidence": 85, "review_status": "accepted", "operator": "Mixed/IPP", "lat": 17.96, "lon": -66.2}
{"asset_id": "PWR00038", "asset_name": "Transmission Corridor: Carolina\u2013Fajardo (115kV)", "asset_type": "power", "asset_subtype": "Transmission Corridor", "municipality": "Carolina/Fajardo", "geometry_type": "point", "status": "active", "source_ref": "HIFLD Open Data", "evidence_tier": "T2", "confidence": 80, "review_status": "accepted", "operator": "Mixed/IPP", "lat": 18.36, "lon": -65.81}
{"asset_id": "PWR00039", "asset_name": "Transmission Corridor: Mayag\u00fcez\u2013Aguadilla (115kV)", "asset_type": "power", "asset_subtype": "Transmission Corridor", "municipality": "Mayag\u00fcez/Aguadilla", "geometry_type": "point", "status": "active", "source_ref": "HIFLD Open Data", "evidence_tier": "T2", "confidence": 80, "review_status": "accepted", "operator": "Mixed/IPP", "lat": 18.31, "lon": -67.15}
{"asset_id": "WTR_60982169", "asset_name": "Water Treatment Plant 60982169", "asset_type": "water", "asset_subtype": "treatment", "municipality": "unknown", "geometry_type": "polygon", "status": "active", "source_ref": "PR_Geodata/water_treatment_plant.geojson (OSM)", "evidence_tier": "T3", "confidence": 60, "review_status": "needs_review", "lat": 18.375817, "lon": -66.11985}
{"asset_id": "WTR_771102129", "asset_name": "Water Treatment Plant 771102129", "asset_type": "water", "asset_subtype": "treatment", "municipality": "unknown", "geometry_type": "polygon", "status": "active", "source_ref": "PR_Geodata/water_treatment_plant.geojson (OSM)", "evidence_tier": "T3", "confidence": 60, "review_status": "needs_review", "lat": 17.967485, "lon": -66.9104}
{"asset_id": "WTR_1312067501", "asset_name": "AAA", "asset_type": "water", "asset_subtype": "treatment", "municipality": "unknown", "geometry_type": "polygon", "status": "active", "source_ref": "PR_Geodata/water_treatment_plant.geojson (OSM)", "evidence_tier": "T3", "confidence": 60, "review_status": "needs_review", "lat": 18.437149, "lon": -66.190501}
{"asset_id": "WTR_1345289780", "asset_name": "AAA", "asset_type": "water", "asset_subtype": "treatment", "municipality": "unknown", "geometry_type": "polygon", "status": "active", "source_ref": "PR_Geodata/water_treatment_plant.geojson (OSM)", "evidence_tier": "T3", "confidence": 60, "review_status": "needs_review", "lat": 18.447034, "lon": -67.034636}
{"asset_id": "WWT_60176732", "asset_name": "Planta de Tratamiento Machete", "asset_type": "wastewater", "asset_subtype": "wastewater_treatment", "municipality": "unknown", "geometry_type": "polygon", "status": "active", "source_ref": "PR_Geodata/wastewater_plant.geojson (OSM)", "evidence_tier": "T3", "confidence": 60, "review_status": "needs_review", "lat": 17.948572, "lon": -66.140148}
{"asset_id": "WWT_61273977", "asset_name": "Planta de Tratamiento de Mayag\u00fcez", "asset_type": "wastewater", "asset_subtype": "wastewater_treatment", "municipality": "unknown", "geometry_type": "polygon", "status": "active", "source_ref": "PR_Geodata/wastewater_plant.geojson (OSM)", "evidence_tier": "T3", "confidence": 60, "review_status": "needs_review", "operator": "Autoridad de Acueductos y Alcantarillados", "lat": 18.247902, "lon": -67.154365}
{"asset_id": "WWT_61307983", "asset_name": "Planta de Tratamiento de Guayanilla", "asset_type": "wastewater", "asset_subtype": "wastewater_treatment", "municipality": "unknown", "geometry_type": "polygon", "status": "active", "source_ref": "PR_Geodata/wastewater_plant.geojson (OSM)", "evidence_tier": "T3", "confidence": 60, "review_status": "needs_review", "operator": "Autoridad de Acueductos y Alcantarillados", "lat": 18.014011, "lon": -66.785102}
{"asset_id": "WWT_319498854", "asset_name": "Planta de Tratamiento de Barceloneta", "asset_type": "wastewater", "asset_subtype": "wastewater_treatment", "municipality": "unknown", "geometry_type": "polygon", "status": "active", "source_ref": "PR_Geodata/wastewater_plant.geojson (OSM)", "evidence_tier": "T3", "confidence": 60, "review_status": "needs_review", "lat": 18.480191, "lon": -66.545537}
{"asset_id": "WWT_467585494", "asset_name": "Planta de Tratamiento de Aguas Residuales de Puerto Nuevo", "asset_type": "wastewater", "asset_subtype": "wastewater_treatment", "municipality": "unknown", "geometry_type": "polygon", "status": "active", "source_ref": "PR_Geodata/wastewater_plant.geojson (OSM)", "evidence_tier": "T3", "confidence": 60, "review_status": "needs_review", "operator": "Autoridad de Acueductos y Alcantarillados", "lat": 18.429897, "lon": -66.085587}
{"asset_id": "WWT_508039884", "asset_name": "Planta de Tratamiento de Fajardo", "asset_type": "wastewater", "asset_subtype": "wastewater_treatment", "municipality": "unknown", "geometry_type": "polygon", "status": "active", "source_ref": "PR_Geodata/wastewater_plant.geojson (OSM)", "evidence_tier": "T3", "confidence": 60, "review_status": "needs_review", "operator": "Autoridad de Acueductos y Alcantarillados", "lat": 18.302348, "lon": -65.663994}
{"asset_id": "WWT_513340924", "asset_name": "Planta de Aguas Sanitarias de Lo\u00edza", "asset_type": "wastewater", "asset_subtype": "wastewater_treatment", "municipality": "unknown", "geometry_type": "polygon", "status": "active", "source_ref": "PR_Geodata/wastewater_plant.geojson (OSM)", "evidence_tier": "T3", "confidence": 60, "review_status": "needs_review", "operator": "Autoridad de Acueductos y Alcantarillados", "lat": 18.437844, "lon": -65.88918}
{"asset_id": "WWT_521687480", "asset_name": "Planta de Tratamiento de Yauco", "asset_type": "wastewater", "asset_subtype": "wastewater_treatment", "municipality": "unknown", "geometry_type": "polygon", "status": "active", "source_ref": "PR_Geodata/wastewater_plant.geojson (OSM)", "evidence_tier": "T3", "confidence": 60, "review_status": "needs_review", "operator": "Autoridad de Acueductos y Alcantarillados", "lat": 18.025313, "lon": -66.842084}
{"asset_id": "WWT_527104219", "asset_name": "Wastewater Plant 527104219", "asset_type": "wastewater", "asset_subtype": "wastewater_treatment", "municipality": "unknown", "geometry_type": "polygon", "status": "active", "source_ref": "PR_Geodata/wastewater_plant.geojson (OSM)", "evidence_tier": "T3", "confidence": 60, "review_status": "needs_review", "lat": 18.505487, "lon": -67.019229}
{"asset_id": "WWT_527104220", "asset_name": "Wastewater Plant 527104220", "asset_type": "wastewater", "asset_subtype": "wastewater_treatment", "municipality": "unknown", "geometry_type": "polygon", "status": "active", "source_ref": "PR_Geodata/wastewater_plant.geojson (OSM)", "evidence_tier": "T3", "confidence": 60, "review_status": "needs_review", "lat": 18.505439, "lon": -67.019034}
{"asset_id": "WWT_527104221", "asset_name": "Wastewater Plant 527104221", "asset_type": "wastewater", "asset_subtype": "wastewater_treatment", "municipality": "unknown", "geometry_type": "polygon", "status": "active", "source_ref": "PR_Geodata/wastewater_plant.geojson (OSM)", "evidence_tier": "T3", "confidence": 60, "review_status": "needs_review", "lat": 18.505383, "lon": -67.018837}
{"asset_id": "WWT_527104222", "asset_name": "Wastewater Plant 527104222", "asset_type": "wastewater", "asset_subtype": "wastewater_treatment", "municipality": "unknown", "geometry_type": "polygon", "status": "active", "source_ref": "PR_Geodata/wastewater_plant.geojson (OSM)", "evidence_tier": "T3", "confidence": 60, "review_status": "needs_review", "lat": 18.505327, "lon": -67.018636}
{"asset_id": "WWT_527104223", "asset_name": "Wastewater Plant 527104223", "asset_type": "wastewater", "asset_subtype": "wastewater_treatment", "municipality": "unknown", "geometry_type": "polygon", "status": "active", "source_ref": "PR_Geodata/wastewater_plant.geojson (OSM)", "evidence_tier": "T3", "confidence": 60, "review_status": "needs_review", "lat": 18.505108, "lon": -67.019204}
{"asset_id": "WWT_527104224", "asset_name": "Wastewater Plant 527104224", "asset_type": "wastewater", "asset_subtype": "wastewater_treatment", "municipality": "unknown", "geometry_type": "polygon", "status": "active", "source_ref": "PR_Geodata/wastewater_plant.geojson (OSM)", "evidence_tier": "T3", "confidence": 60, "review_status": "needs_review", "lat": 18.505621, "lon": -67.019031}
{"asset_id": "WWT_527156841", "asset_name": "Planta de Tratamiento de Camuy", "asset_type": "wastewater", "asset_subtype": "wastewater_treatment", "municipality": "unknown", "geometry_type": "polygon", "status": "active", "source_ref": "PR_Geodata/wastewater_plant.geojson (OSM)", "evidence_tier": "T3", "confidence": 60, "review_status": "needs_review", "operator": "Autoridad de Acueductos y Alcantarillados", "lat": 18.488586, "lon": -66.875572}
{"asset_id": "WWT_527366371", "asset_name": "Planta de Tratamiento de Isabela", "asset_type": "wastewater", "asset_subtype": "wastewater_treatment", "municipality": "unknown", "geometry_type": "polygon", "status": "active", "source_ref": "PR_Geodata/wastewater_plant.geojson (OSM)", "evidence_tier": "T3", "confidence": 60, "review_status": "needs_review", "operator": "Autoridad de Acueductos y Alcantarillados", "lat": 18.474268, "lon": -67.030422}
{"asset_id": "WWT_528198074", "asset_name": "Planta de Tratamiento de Humacao", "asset_type": "wastewater", "asset_subtype": "wastewater_treatment", "municipality": "unknown", "geometry_type": "polygon", "status": "active", "source_ref": "PR_Geodata/wastewater_plant.geojson (OSM)", "evidence_tier": "T3", "confidence": 60, "review_status": "needs_review", "operator": "Autoridad de Acueductos y Alcantarillados", "lat": 18.130432, "lon": -65.790488}
{"asset_id": "WWT_528219970", "asset_name": "Wastewater Plant 528219970", "asset_type": "wastewater", "asset_subtype": "wastewater_treatment", "municipality": "unknown", "geometry_type": "polygon", "status": "active", "source_ref": "PR_Geodata/wastewater_plant.geojson (OSM)", "evidence_tier": "T3", "confidence": 60, "review_status": "needs_review", "lat": 18.315317, "lon": -65.894527}
{"asset_id": "WWT_528226703", "asset_name": "Wastewater Plant 528226703", "asset_type": "wastewater", "asset_subtype": "wastewater_treatment", "municipality": "unknown", "geometry_type": "polygon", "status": "active", "source_ref": "PR_Geodata/wastewater_plant.geojson (OSM)", "evidence_tier": "T3", "confidence": 60, "review_status": "needs_review", "lat": 18.268643, "lon": -65.867356}
{"asset_id": "WWT_528231295", "asset_name": "Planta de Agua del Yunque", "asset_type": "wastewater", "asset_subtype": "wastewater_treatment", "municipality": "unknown", "geometry_type": "polygon", "status": "active", "source_ref": "PR_Geodata/wastewater_plant.geojson (OSM)", "evidence_tier": "T3", "confidence": 60, "review_status": "needs_review", "operator": "El Yunque", "lat": 18.237472, "lon": -65.783678}
{"asset_id": "WWT_528375144", "asset_name": "Planta de Tratamiento de San Sebasti\u00e1n", "asset_type": "wastewater", "asset_subtype": "wastewater_treatment", "municipality": "unknown", "geometry_type": "polygon", "status": "active", "source_ref": "PR_Geodata/wastewater_plant.geojson (OSM)", "evidence_tier": "T3", "confidence": 60, "review_status": "needs_review", "operator": "Autoridad de Acueductos y Alcantarillados", "lat": 18.345307, "lon": -67.018052}
{"asset_id": "WWT_528511966", "asset_name": "Planta de Tratamiento Bairoa La 25", "asset_type": "wastewater", "asset_subtype": "wastewater_treatment", "municipality": "unknown", "geometry_type": "polygon", "status": "active", "source_ref": "PR_Geodata/wastewater_plant.geojson (OSM)", "evidence_tier": "T3", "confidence": 60, "review_status": "needs_review", "operator": "Autoridad de Acueductos y Alcantarillados", "lat": 18.261765, "lon": -66.028332}
{"asset_id": "WWT_528838200", "asset_name": "Planta de Tratamiento de Aibonito", "asset_type": "wastewater", "asset_subtype": "wastewater_treatment", "municipality": "unknown", "geometry_type": "polygon", "status": "active", "source_ref": "PR_Geodata/wastewater_plant.geojson (OSM)", "evidence_tier": "T3", "confidence": 60, "review_status": "needs_review", "operator": "Autoridad de Acueductos y Alcantarillados", "lat": 18.148835, "lon": -66.278936}
{"asset_id": "WWT_528999617", "asset_name": "Planta de Tratamiento de Santa Isabel", "asset_type": "wastewater", "asset_subtype": "wastewater_treatment", "municipality": "unknown", "geometry_type": "polygon", "status": "active", "source_ref": "PR_Geodata/wastewater_plant.geojson (OSM)", "evidence_tier": "T3", "confidence": 60, "review_status": "needs_review", "operator": "Autoridad de Acueductos y Alcantarillados", "lat": 17.963298, "lon": -66.422675}
{"asset_id": "WWT_529710720", "asset_name": "Wastewater Plant 529710720", "asset_type": "wastewater", "asset_subtype": "wastewater_treatment", "municipality": "unknown", "geometry_type": "polygon", "status": "active", "source_ref": "PR_Geodata/wastewater_plant.geojson (OSM)", "evidence_tier": "T3", "confidence": 60, "review_status": "needs_review", "lat": 18.039188, "lon": -66.423398}
{"asset_id": "WWT_529710721", "asset_name": "Wastewater Plant 529710721", "asset_type": "wastewater", "asset_subtype": "wastewater_treatment", "municipality": "unknown", "geometry_type": "polygon", "status": "active", "source_ref": "PR_Geodata/wastewater_plant.geojson (OSM)", "evidence_tier": "T3", "confidence": 60, "review_status": "needs_review", "lat": 18.039074, "lon": -66.423227}
{"asset_id": "WWT_529885188", "asset_name": "Wastewater Plant 529885188", "asset_type": "wastewater", "asset_subtype": "wastewater_treatment", "municipality": "unknown", "geometry_type": "polygon", "status": "active", "source_ref": "PR_Geodata/wastewater_plant.geojson (OSM)", "evidence_tier": "T3", "confidence": 60, "review_status": "needs_review", "lat": 17.990051, "lon": -66.111408}
{"asset_id": "WWT_529967426", "asset_name": "Wastewater Plant 529967426", "asset_type": "wastewater", "asset_subtype": "wastewater_treatment", "municipality": "unknown", "geometry_type": "polygon", "status": "active", "source_ref": "PR_Geodata/wastewater_plant.geojson (OSM)", "evidence_tier": "T3", "confidence": 60, "review_status": "needs_review", "lat": 17.959619, "lon": -66.148424}
{"asset_id": "WWT_529967427", "asset_name": "Wastewater Plant 529967427", "asset_type": "wastewater", "asset_subtype": "wastewater_treatment", "municipality": "unknown", "geometry_type": "polygon", "status": "active", "source_ref": "PR_Geodata/wastewater_plant.geojson (OSM)", "evidence_tier": "T3", "confidence": 60, "review_status": "needs_review", "lat": 17.960118, "lon": -66.14842}
{"asset_id": "WWT_529967428", "asset_name": "Wastewater Plant 529967428", "asset_type": "wastewater", "asset_subtype": "wastewater_treatment", "municipality": "unknown", "geometry_type": "polygon", "status": "active", "source_ref": "PR_Geodata/wastewater_plant.geojson (OSM)", "evidence_tier": "T3", "confidence": 60, "review_status": "needs_review", "lat": 17.960216, "lon": -66.148025}
{"asset_id": "WWT_529967429", "asset_name": "Wastewater Plant 529967429", "asset_type": "wastewater", "asset_subtype": "wastewater_treatment", "municipality": "unknown", "geometry_type": "polygon", "status": "active", "source_ref": "PR_Geodata/wastewater_plant.geojson (OSM)", "evidence_tier": "T3", "confidence": 60, "review_status": "needs_review", "lat": 17.959848, "lon": -66.148019}
{"asset_id": "WWT_530035079", "asset_name": "Planta de Tratamiento de Cidra", "asset_type": "wastewater", "asset_subtype": "wastewater_treatment", "municipality": "unknown", "geometry_type": "polygon", "status": "active", "source_ref": "PR_Geodata/wastewater_plant.geojson (OSM)", "evidence_tier": "T3", "confidence": 60, "review_status": "needs_review", "operator": "Autoridad de Acueductos y Alcantarillados", "lat": 18.135699, "lon": -66.173146}
{"asset_id": "WWT_530077453", "asset_name": "Planta de Tratamiento de Vega Alta", "asset_type": "wastewater", "asset_subtype": "wastewater_treatment", "municipality": "unknown", "geometry_type": "polygon", "status": "active", "source_ref": "PR_Geodata/wastewater_plant.geojson (OSM)", "evidence_tier": "T3", "confidence": 60, "review_status": "needs_review", "operator": "Autoridad de Acueductos y Alcantarillados", "lat": 18.417268, "lon": -66.338833}
{"asset_id": "WWT_530414591", "asset_name": "Wastewater Plant 530414591", "asset_type": "wastewater", "asset_subtype": "wastewater_treatment", "municipality": "unknown", "geometry_type": "polygon", "status": "active", "source_ref": "PR_Geodata/wastewater_plant.geojson (OSM)", "evidence_tier": "T3", "confidence": 60, "review_status": "needs_review", "operator": "AAA", "lat": 18.358204, "lon": -66.003881}
{"asset_id": "WWT_530656325", "asset_name": "Wastewater Plant 530656325", "asset_type": "wastewater", "asset_subtype": "wastewater_treatment", "municipality": "unknown", "geometry_type": "polygon", "status": "active", "source_ref": "PR_Geodata/wastewater_plant.geojson (OSM)", "evidence_tier": "T3", "confidence": 60, "review_status": "needs_review", "lat": 18.305525, "lon": -66.684661}
{"asset_id": "WWT_530672414", "asset_name": "Wastewater Plant 530672414", "asset_type": "wastewater", "asset_subtype": "wastewater_treatment", "municipality": "unknown", "geometry_type": "polygon", "status": "active", "source_ref": "PR_Geodata/wastewater_plant.geojson (OSM)", "evidence_tier": "T3", "confidence": 60, "review_status": "needs_review", "lat": 18.386728, "lon": -66.246996}
{"asset_id": "WWT_530672415", "asset_name": "Wastewater Plant 530672415", "asset_type": "wastewater", "asset_subtype": "wastewater_treatment", "municipality": "unknown", "geometry_type": "polygon", "status": "active", "source_ref": "PR_Geodata/wastewater_plant.geojson (OSM)", "evidence_tier": "T3", "confidence": 60, "review_status": "needs_review", "lat": 18.386654, "lon": -66.246708}
{"asset_id": "WWT_531505593", "asset_name": "Wastewater Plant 531505593", "asset_type": "wastewater", "asset_subtype": "wastewater_treatment", "municipality": "unknown", "geometry_type": "polygon", "status": "active", "source_ref": "PR_Geodata/wastewater_plant.geojson (OSM)", "evidence_tier": "T3", "confidence": 60, "review_status": "needs_review", "lat": 17.988232, "lon": -66.752872}
{"asset_id": "WWT_531831906", "asset_name": "Wastewater Plant 531831906", "asset_type": "wastewater", "asset_subtype": "wastewater_treatment", "municipality": "unknown", "geometry_type": "polygon", "status": "active", "source_ref": "PR_Geodata/wastewater_plant.geojson (OSM)", "evidence_tier": "T3", "confidence": 60, "review_status": "needs_review", "lat": 18.480544, "lon": -66.678171}
{"asset_id": "WWT_532091797", "asset_name": "Planta de Tratamiento de San Germ\u00e1n", "asset_type": "wastewater", "asset_subtype": "wastewater_treatment", "municipality": "unknown", "geometry_type": "polygon", "status": "active", "source_ref": "PR_Geodata/wastewater_plant.geojson (OSM)", "evidence_tier": "T3", "confidence": 60, "review_status": "needs_review", "operator": "Autoridad de Acueductos y Alcantarillados", "lat": 18.091714, "lon": -67.038702}
{"asset_id": "WWT_532381779", "asset_name": "Planta de Tratamiento Ingeniero Enrique Ortega Rosado", "asset_type": "wastewater", "asset_subtype": "wastewater_treatment", "municipality": "unknown", "geometry_type": "polygon", "status": "active", "source_ref": "PR_Geodata/wastewater_plant.geojson (OSM)", "evidence_tier": "T3", "confidence": 60, "review_status": "needs_review", "operator": "Autoridad de Acueductos y Alcantarillados", "lat": 18.352595, "lon": -66.226502}
{"asset_id": "WWT_532860430", "asset_name": "Wastewater Plant 532860430", "asset_type": "wastewater", "asset_subtype": "wastewater_treatment", "municipality": "unknown", "geometry_type": "polygon", "status": "active", "source_ref": "PR_Geodata/wastewater_plant.geojson (OSM)", "evidence_tier": "T3", "confidence": 60, "review_status": "needs_review", "lat": 18.480577, "lon": -66.678683}
{"asset_id": "WWT_533046887", "asset_name": "Wastewater Plant 533046887", "asset_type": "wastewater", "asset_subtype": "wastewater_treatment", "municipality": "unknown", "geometry_type": "polygon", "status": "active", "source_ref": "PR_Geodata/wastewater_plant.geojson (OSM)", "evidence_tier": "T3", "confidence": 60, "review_status": "needs_review", "lat": 18.48074, "lon": -66.6775}
{"asset_id": "WWT_533046888", "asset_name": "Wastewater Plant 533046888", "asset_type": "wastewater", "asset_subtype": "wastewater_treatment", "municipality": "unknown", "geometry_type": "polygon", "status": "active", "source_ref": "PR_Geodata/wastewater_plant.geojson (OSM)", "evidence_tier": "T3", "confidence": 60, "review_status": "needs_review", "lat": 18.480549, "lon": -66.677511}
{"asset_id": "WWT_533046892", "asset_name": "Wastewater Plant 533046892", "asset_type": "wastewater", "asset_subtype": "wastewater_treatment", "municipality": "unknown", "geometry_type": "polygon", "status": "active", "source_ref": "PR_Geodata/wastewater_plant.geojson (OSM)", "evidence_tier": "T3", "confidence": 60, "review_status": "needs_review", "lat": 18.480171, "lon": -66.678239}
{"asset_id": "WWT_533046896", "asset_name": "Wastewater Plant 533046896", "asset_type": "wastewater", "asset_subtype": "wastewater_treatment", "municipality": "unknown", "geometry_type": "polygon", "status": "active", "source_ref": "PR_Geodata/wastewater_plant.geojson (OSM)", "evidence_tier": "T3", "confidence": 60, "review_status": "needs_review", "lat": 18.480162, "lon": -66.677754}
{"asset_id": "WWT_533046897", "asset_name": "Wastewater Plant 533046897", "asset_type": "wastewater", "asset_subtype": "wastewater_treatment", "municipality": "unknown", "geometry_type": "polygon", "status": "active", "source_ref": "PR_Geodata/wastewater_plant.geojson (OSM)", "evidence_tier": "T3", "confidence": 60, "review_status": "needs_review", "lat": 18.479868, "lon": -66.678557}
{"asset_id": "WWT_533253101", "asset_name": "Planta de Tratamiento de Maunabo", "asset_type": "wastewater", "asset_subtype": "wastewater_treatment", "municipality": "unknown", "geometry_type": "polygon", "status": "active", "source_ref": "PR_Geodata/wastewater_plant.geojson (OSM)", "evidence_tier": "T3", "confidence": 60, "review_status": "needs_review", "operator": "Autoridad de Acueductos y Alcantarillados", "lat": 18.006038, "lon": -65.903005}
{"asset_id": "WWT_534326054", "asset_name": "Planta de Tratamiento de Vega Baja", "asset_type": "wastewater", "asset_subtype": "wastewater_treatment", "municipality": "unknown", "geometry_type": "polygon", "status": "active", "source_ref": "PR_Geodata/wastewater_plant.geojson (OSM)", "evidence_tier": "T3", "confidence": 60, "review_status": "needs_review", "operator": "Autoridad de Acueductos y Alcantarillados", "lat": 18.468815, "lon": -66.396633}
{"asset_id": "WWT_534667478", "asset_name": "Tanque Clarificador", "asset_type": "wastewater", "asset_subtype": "wastewater_treatment", "municipality": "unknown", "geometry_type": "polygon", "status": "active", "source_ref": "PR_Geodata/wastewater_plant.geojson (OSM)", "evidence_tier": "T3", "confidence": 60, "review_status": "needs_review", "lat": 18.091248, "lon": -67.038459}
{"asset_id": "WWT_534966760", "asset_name": "Planta de Tratamiento de Cabo Rojo", "asset_type": "wastewater", "asset_subtype": "wastewater_treatment", "municipality": "unknown", "geometry_type": "polygon", "status": "active", "source_ref": "PR_Geodata/wastewater_plant.geojson (OSM)", "evidence_tier": "T3", "confidence": 60, "review_status": "needs_review", "operator": "Autoridad de Acueductos y Alcantarillados", "lat": 18.037467, "lon": -67.134193}
{"asset_id": "WWT_535277858", "asset_name": "Wastewater Plant 535277858", "asset_type": "wastewater", "asset_subtype": "wastewater_treatment", "municipality": "unknown", "geometry_type": "polygon", "status": "active", "source_ref": "PR_Geodata/wastewater_plant.geojson (OSM)", "evidence_tier": "T3", "confidence": 60, "review_status": "needs_review", "lat": 18.08867, "lon": -67.048513}
{"asset_id": "WWT_536638123", "asset_name": "Planta de Tratamiento de Morovis", "asset_type": "wastewater", "asset_subtype": "wastewater_treatment", "municipality": "unknown", "geometry_type": "polygon", "status": "active", "source_ref": "PR_Geodata/wastewater_plant.geojson (OSM)", "evidence_tier": "T3", "confidence": 60, "review_status": "needs_review", "lat": 18.328026, "lon": -66.410897}
{"asset_id": "WWT_536733712", "asset_name": "Wastewater Plant 536733712", "asset_type": "wastewater", "asset_subtype": "wastewater_treatment", "municipality": "unknown", "geometry_type": "polygon", "status": "active", "source_ref": "PR_Geodata/wastewater_plant.geojson (OSM)", "evidence_tier": "T3", "confidence": 60, "review_status": "needs_review", "lat": 18.387068, "lon": -66.246619}
{"asset_id": "WWT_538198951", "asset_name": "Planta de Tratamiento Borinquen", "asset_type": "wastewater", "asset_subtype": "wastewater_treatment", "municipality": "unknown", "geometry_type": "polygon", "status": "active", "source_ref": "PR_Geodata/wastewater_plant.geojson (OSM)", "evidence_tier": "T3", "confidence": 60, "review_status": "needs_review", "operator": "Autoridad de Acueductos y Alcantarillados", "lat": 18.181124, "lon": -66.048934}
{"asset_id": "WWT_539720519", "asset_name": "Tanque Clarificador", "asset_type": "wastewater", "asset_subtype": "wastewater_treatment", "municipality": "unknown", "geometry_type": "polygon", "status": "active", "source_ref": "PR_Geodata/wastewater_plant.geojson (OSM)", "evidence_tier": "T3", "confidence": 60, "review_status": "needs_review", "lat": 18.091412, "lon": -67.038716}
{"asset_id": "WWT_561651255", "asset_name": "Tanque Anaer\u00f3bico", "asset_type": "wastewater", "asset_subtype": "wastewater_treatment", "municipality": "unknown", "geometry_type": "polygon", "status": "active", "source_ref": "PR_Geodata/wastewater_plant.geojson (OSM)", "evidence_tier": "T3", "confidence": 60, "review_status": "needs_review", "lat": 18.090571, "lon": -67.039152}
{"asset_id": "WWT_699312264", "asset_name": "Planta de Tratamiento de Comer\u00edo", "asset_type": "wastewater", "asset_subtype": "wastewater_treatment", "municipality": "unknown", "geometry_type": "polygon", "status": "active", "source_ref": "PR_Geodata/wastewater_plant.geojson (OSM)", "evidence_tier": "T3", "confidence": 60, "review_status": "needs_review", "operator": "Autoridad de Acueductos y Alcantarillados", "lat": 18.242774, "lon": -66.206945}
{"asset_id": "WWT_755503005", "asset_name": "Planta de Tratamiento Ingeniero Sergio Cuevas Bustamante", "asset_type": "wastewater", "asset_subtype": "wastewater_treatment", "municipality": "unknown", "geometry_type": "polygon", "status": "active", "source_ref": "PR_Geodata/wastewater_plant.geojson (OSM)", "evidence_tier": "T3", "confidence": 60, "review_status": "needs_review", "lat": 18.372888, "lon": -66.022941}
{"asset_id": "WWT_756365737", "asset_name": "Wastewater Plant 756365737", "asset_type": "wastewater", "asset_subtype": "wastewater_treatment", "municipality": "unknown", "geometry_type": "polygon", "status": "active", "source_ref": "PR_Geodata/wastewater_plant.geojson (OSM)", "evidence_tier": "T3", "confidence": 60, "review_status": "needs_review", "lat": 18.210592, "lon": -66.23219}
{"asset_id": "WWT_756382853", "asset_name": "Planta de Tratamiento de Yabucoa", "asset_type": "wastewater", "asset_subtype": "wastewater_treatment", "municipality": "unknown", "geometry_type": "polygon", "status": "active", "source_ref": "PR_Geodata/wastewater_plant.geojson (OSM)", "evidence_tier": "T3", "confidence": 60, "review_status": "needs_review", "operator": "Autoridad de Acueductos y Alcantarillados", "lat": 18.049409, "lon": -65.869698}
{"asset_id": "WWT_756386129", "asset_name": "Planta de Tratamiento de Patillas", "asset_type": "wastewater", "asset_subtype": "wastewater_treatment", "municipality": "unknown", "geometry_type": "polygon", "status": "active", "source_ref": "PR_Geodata/wastewater_plant.geojson (OSM)", "evidence_tier": "T3", "confidence": 60, "review_status": "needs_review", "operator": "Autoridad de Acueductos y Alcantarillados", "lat": 18.000202, "lon": -66.01174}
{"asset_id": "WWT_757975343", "asset_name": "Wastewater Plant 757975343", "asset_type": "wastewater", "asset_subtype": "wastewater_treatment", "municipality": "unknown", "geometry_type": "polygon", "status": "active", "source_ref": "PR_Geodata/wastewater_plant.geojson (OSM)", "evidence_tier": "T3", "confidence": 60, "review_status": "needs_review", "lat": 18.173399, "lon": -66.729516}
{"asset_id": "WWT_759410422", "asset_name": "Wastewater Plant 759410422", "asset_type": "wastewater", "asset_subtype": "wastewater_treatment", "municipality": "unknown", "geometry_type": "polygon", "status": "active", "source_ref": "PR_Geodata/wastewater_plant.geojson (OSM)", "evidence_tier": "T3", "confidence": 60, "review_status": "needs_review", "lat": 18.085189, "lon": -66.362985}
{"asset_id": "WWT_759442287", "asset_name": "Wastewater Plant 759442287", "asset_type": "wastewater", "asset_subtype": "wastewater_treatment", "municipality": "unknown", "geometry_type": "polygon", "status": "active", "source_ref": "PR_Geodata/wastewater_plant.geojson (OSM)", "evidence_tier": "T3", "confidence": 60, "review_status": "needs_review", "lat": 18.223949, "lon": -65.654671}
{"asset_id": "WWT_759905662", "asset_name": "Wastewater Plant 759905662", "asset_type": "wastewater", "asset_subtype": "wastewater_treatment", "municipality": "unknown", "geometry_type": "polygon", "status": "active", "source_ref": "PR_Geodata/wastewater_plant.geojson (OSM)", "evidence_tier": "T3", "confidence": 60, "review_status": "needs_review", "lat": 18.245622, "lon": -66.021518}
{"asset_id": "WWT_771102130", "asset_name": "Wastewater Plant 771102130", "asset_type": "wastewater", "asset_subtype": "wastewater_treatment", "municipality": "unknown", "geometry_type": "polygon", "status": "active", "source_ref": "PR_Geodata/wastewater_plant.geojson (OSM)", "evidence_tier": "T3", "confidence": 60, "review_status": "needs_review", "lat": 17.967343, "lon": -66.911461}
{"asset_id": "WWT_815960684", "asset_name": "Planta de Tratamiento de Dorado", "asset_type": "wastewater", "asset_subtype": "wastewater_treatment", "municipality": "unknown", "geometry_type": "polygon", "status": "active", "source_ref": "PR_Geodata/wastewater_plant.geojson (OSM)", "evidence_tier": "T3", "confidence": 60, "review_status": "needs_review", "operator": "Autoridad de Acueductos y Alcantarillados", "lat": 18.456095, "lon": -66.259314}
{"asset_id": "WWT_827089939", "asset_name": "Planta de Tratamiento de Miradero", "asset_type": "wastewater", "asset_subtype": "wastewater_treatment", "municipality": "unknown", "geometry_type": "polygon", "status": "active", "source_ref": "PR_Geodata/wastewater_plant.geojson (OSM)", "evidence_tier": "T3", "confidence": 60, "review_status": "needs_review", "operator": "Autoridad de Acueductos y Alcantarillados", "lat": 18.226109, "lon": -67.139914}
{"asset_id": "WWT_840271878", "asset_name": "Planta de Tratamiento de Gurabo", "asset_type": "wastewater", "asset_subtype": "wastewater_treatment", "municipality": "unknown", "geometry_type": "polygon", "status": "active", "source_ref": "PR_Geodata/wastewater_plant.geojson (OSM)", "evidence_tier": "T3", "confidence": 60, "review_status": "needs_review", "lat": 18.255944, "lon": -65.964245}
{"asset_id": "WWT_840305578", "asset_name": "Planta de Tratamiento de Naguabo", "asset_type": "wastewater", "asset_subtype": "wastewater_treatment", "municipality": "unknown", "geometry_type": "polygon", "status": "active", "source_ref": "PR_Geodata/wastewater_plant.geojson (OSM)", "evidence_tier": "T3", "confidence": 60, "review_status": "needs_review", "operator": "Autoridad de Acueductos y Alcantarillados", "lat": 18.215087, "lon": -65.786447}
{"asset_id": "WWT_1030695145", "asset_name": "Planta de Tratamiento de Arecibo", "asset_type": "wastewater", "asset_subtype": "wastewater_treatment", "municipality": "unknown", "geometry_type": "polygon", "status": "active", "source_ref": "PR_Geodata/wastewater_plant.geojson (OSM)", "evidence_tier": "T3", "confidence": 60, "review_status": "needs_review", "operator": "Autoridad de Acueductos y Alcantarillados", "lat": 18.426139, "lon": -66.633802}
{"asset_id": "WWT_1071577791", "asset_name": "Planta de Tratamiento de Ponce", "asset_type": "wastewater", "asset_subtype": "wastewater_treatment", "municipality": "unknown", "geometry_type": "polygon", "status": "active", "source_ref": "PR_Geodata/wastewater_plant.geojson (OSM)", "evidence_tier": "T3", "confidence": 60, "review_status": "needs_review", "operator": "Autoridad de Acueductos y Alcantarillados", "lat": 17.983226, "lon": -66.639569}
{"asset_id": "WWT_1073415147", "asset_name": "Planta de Tratamiento de Ciales", "asset_type": "wastewater", "asset_subtype": "wastewater_treatment", "municipality": "unknown", "geometry_type": "polygon", "status": "active", "source_ref": "PR_Geodata/wastewater_plant.geojson (OSM)", "evidence_tier": "T3", "confidence": 60, "review_status": "needs_review", "operator": "Autoridad de Acueductos y Alcantarillados", "lat": 18.346104, "lon": -66.46856}
{"asset_id": "WWT_1073607007", "asset_name": "Planta de Tratamiento de Aguadilla", "asset_type": "wastewater", "asset_subtype": "wastewater_treatment", "municipality": "unknown", "geometry_type": "polygon", "status": "active", "source_ref": "PR_Geodata/wastewater_plant.geojson (OSM)", "evidence_tier": "T3", "confidence": 60, "review_status": "needs_review", "operator": "Autoridad de Acueductos y Alcantarillados", "lat": 18.447248, "lon": -67.143929}
{"asset_id": "WWT_1075389194", "asset_name": "Planta de Filtraci\u00f3n de Guaynabo", "asset_type": "wastewater", "asset_subtype": "wastewater_treatment", "municipality": "unknown", "geometry_type": "polygon", "status": "active", "source_ref": "PR_Geodata/wastewater_plant.geojson (OSM)", "evidence_tier": "T3", "confidence": 60, "review_status": "needs_review", "operator": "Autoridad de Acueductos y Alcantarillados", "lat": 18.37573, "lon": -66.119051}
{"asset_id": "WWT_1082743978", "asset_name": "Planta de Tratamiento de Can\u00f3vanas", "asset_type": "wastewater", "asset_subtype": "wastewater_treatment", "municipality": "unknown", "geometry_type": "polygon", "status": "active", "source_ref": "PR_Geodata/wastewater_plant.geojson (OSM)", "evidence_tier": "T3", "confidence": 60, "review_status": "needs_review", "operator": "Autoridad de Acueductos y Alcantarillados", "lat": 18.376872, "lon": -65.880281}
{"asset_id": "WWT_1082748463", "asset_name": "Planta de Tratamiento de R\u00edo Grande", "asset_type": "wastewater", "asset_subtype": "wastewater_treatment", "municipality": "unknown", "geometry_type": "polygon", "status": "active", "source_ref": "PR_Geodata/wastewater_plant.geojson (OSM)", "evidence_tier": "T3", "confidence": 60, "review_status": "needs_review", "operator": "Autoridad de Acueductos y Alcantarillados", "lat": 18.37691, "lon": -65.817903}
{"asset_id": "WWT_1125448966", "asset_name": "Planta de Tratamento de Las Mar\u00edas", "asset_type": "wastewater", "asset_subtype": "wastewater_treatment", "municipality": "unknown", "geometry_type": "polygon", "status": "active", "source_ref": "PR_Geodata/wastewater_plant.geojson (OSM)", "evidence_tier": "T3", "confidence": 60, "review_status": "needs_review", "operator": "Autoridad de Acueductos y Alcantarillados", "lat": 18.274757, "lon": -66.979794}
{"asset_id": "WWT_1137067385", "asset_name": "Planta de Tratamiento de Orocovis", "asset_type": "wastewater", "asset_subtype": "wastewater_treatment", "municipality": "unknown", "geometry_type": "polygon", "status": "active", "source_ref": "PR_Geodata/wastewater_plant.geojson (OSM)", "evidence_tier": "T3", "confidence": 60, "review_status": "needs_review", "operator": "Autoridad de Acueductos y Alcantarillados", "lat": 18.233516, "lon": -66.388357}
{"asset_id": "WWT_1138181366", "asset_name": "Planta de Tratamiento de Aibonito", "asset_type": "wastewater", "asset_subtype": "wastewater_treatment", "municipality": "unknown", "geometry_type": "polygon", "status": "active", "source_ref": "PR_Geodata/wastewater_plant.geojson (OSM)", "evidence_tier": "T3", "confidence": 60, "review_status": "needs_review", "operator": "Autoridad de Acueductos y Alcantarillados", "lat": 18.15958, "lon": -66.23114}
{"asset_id": "WWT_1143725419", "asset_name": "Planta de Tratamiento de Villalba", "asset_type": "wastewater", "asset_subtype": "wastewater_treatment", "municipality": "unknown", "geometry_type": "polygon", "status": "active", "source_ref": "PR_Geodata/wastewater_plant.geojson (OSM)", "evidence_tier": "T3", "confidence": 60, "review_status": "needs_review", "operator": "Autoridad de Acueductos y Alcantarillados", "lat": 18.097726, "lon": -66.485963}
{"asset_id": "WWT_1144517617", "asset_name": "Planta de Tratamiento de Cidra", "asset_type": "wastewater", "asset_subtype": "wastewater_treatment", "municipality": "unknown", "geometry_type": "polygon", "status": "active", "source_ref": "PR_Geodata/wastewater_plant.geojson (OSM)", "evidence_tier": "T3", "confidence": 60, "review_status": "needs_review", "operator": "Autoridad de Acueductos y Alcantarillados", "lat": 18.195824, "lon": -66.141718}
{"asset_id": "WWT_1149279277", "asset_name": "Planta de Tratamiento de Utuado", "asset_type": "wastewater", "asset_subtype": "wastewater_treatment", "municipality": "unknown", "geometry_type": "polygon", "status": "active", "source_ref": "PR_Geodata/wastewater_plant.geojson (OSM)", "evidence_tier": "T3", "confidence": 60, "review_status": "needs_review", "operator": "Autoridad de Acueductos y Alcantarillados", "lat": 18.244009, "lon": -66.670499}
{"asset_id": "WWT_1151623844", "asset_name": "Wastewater Plant 1151623844", "asset_type": "wastewater", "asset_subtype": "wastewater_treatment", "municipality": "unknown", "geometry_type": "polygon", "status": "active", "source_ref": "PR_Geodata/wastewater_plant.geojson (OSM)", "evidence_tier": "T3", "confidence": 60, "review_status": "needs_review", "lat": 18.136674, "lon": -66.583149}
{"asset_id": "WWT_1154577832", "asset_name": "Planta de Tratamiento de Sabana Grande", "asset_type": "wastewater", "asset_subtype": "wastewater_treatment", "municipality": "unknown", "geometry_type": "polygon", "status": "active", "source_ref": "PR_Geodata/wastewater_plant.geojson (OSM)", "evidence_tier": "T3", "confidence": 60, "review_status": "needs_review", "operator": "Autoridad de Acueductos y Alcantarillados", "lat": 18.043148, "lon": -66.949651}
{"asset_id": "WWT_1217865205", "asset_name": "Planta de Tratamiento de Morovis", "asset_type": "wastewater", "asset_subtype": "wastewater_treatment", "municipality": "unknown", "geometry_type": "polygon", "status": "active", "source_ref": "PR_Geodata/wastewater_plant.geojson (OSM)", "evidence_tier": "T3", "confidence": 60, "review_status": "needs_review", "operator": "Autoridad de Acueductos y Alcantarillados", "lat": 18.335884, "lon": -66.4202}
{"asset_id": "WWT_1243404756", "asset_name": "Planta de Tratamiento de Lajas", "asset_type": "wastewater", "asset_subtype": "wastewater_treatment", "municipality": "unknown", "geometry_type": "polygon", "status": "active", "source_ref": "PR_Geodata/wastewater_plant.geojson (OSM)", "evidence_tier": "T3", "confidence": 60, "review_status": "needs_review", "operator": "Autoridad de Acueductos y Alcantarillados", "lat": 18.042063, "lon": -67.053004}
{"asset_id": "WWT_1243686666", "asset_name": "Wastewater Plant 1243686666", "asset_type": "wastewater", "asset_subtype": "wastewater_treatment", "municipality": "unknown", "geometry_type": "polygon", "status": "active", "source_ref": "PR_Geodata/wastewater_plant.geojson (OSM)", "evidence_tier": "T3", "confidence": 60, "review_status": "needs_review", "lat": 18.184349, "lon": -66.157251}
{"asset_id": "WWT_1330762561", "asset_name": "Wastewater Plant 1330762561", "asset_type": "wastewater", "asset_subtype": "wastewater_treatment", "municipality": "unknown", "geometry_type": "polygon", "status": "active", "source_ref": "PR_Geodata/wastewater_plant.geojson (OSM)", "evidence_tier": "T3", "confidence": 60, "review_status": "needs_review", "lat": 18.38691, "lon": -66.24679}
{"asset_id": "WWT_1351995549", "asset_name": "AAA Planta de Filtracion", "asset_type": "wastewater", "asset_subtype": "wastewater_treatment", "municipality": "unknown", "geometry_type": "polygon", "status": "active", "source_ref": "PR_Geodata/wastewater_plant.geojson (OSM)", "evidence_tier": "T3", "confidence": 60, "review_status": "needs_review", "lat": 18.465676, "lon": -67.080251}
{"asset_id": "WWT_1359378120", "asset_name": "Planta de Tratamiento de Corozal", "asset_type": "wastewater", "asset_subtype": "wastewater_treatment", "municipality": "unknown", "geometry_type": "polygon", "status": "active", "source_ref": "PR_Geodata/wastewater_plant.geojson (OSM)", "evidence_tier": "T3", "confidence": 60, "review_status": "needs_review", "operator": "Autoridad de Acueductos y Alcantarillados", "lat": 18.345933, "lon": -66.327893}
{"asset_id": "WWT_1378974979", "asset_name": "Planta de Tratamiento de Adjuntas", "asset_type": "wastewater", "asset_subtype": "wastewater_treatment", "municipality": "unknown", "geometry_type": "polygon", "status": "active", "source_ref": "PR_Geodata/wastewater_plant.geojson (OSM)", "evidence_tier": "T3", "confidence": 60, "review_status": "needs_review", "operator": "Autoridad de Acueductos y Alcantarillados", "lat": 18.166655, "lon": -66.727796}
{"asset_id": "WWT_1462177091", "asset_name": "Wastewater Plant 1462177091", "asset_type": "wastewater", "asset_subtype": "wastewater_treatment", "municipality": "unknown", "geometry_type": "polygon", "status": "active", "source_ref": "PR_Geodata/wastewater_plant.geojson (OSM)", "evidence_tier": "T3", "confidence": 60, "review_status": "needs_review", "lat": 18.202531, "lon": -67.125769}
{"asset_id": "WWT_1467663856", "asset_name": "Planta de Tratamiento de Vieques", "asset_type": "wastewater", "asset_subtype": "wastewater_treatment", "municipality": "unknown", "geometry_type": "polygon", "status": "active", "source_ref": "PR_Geodata/wastewater_plant.geojson (OSM)", "evidence_tier": "T3", "confidence": 60, "review_status": "needs_review", "operator": "Autoridad de Acueductos y Alcantarillados", "lat": 18.143111, "lon": -65.466471}
{"asset_id": "PMP_365941983", "asset_name": "Estaci\u00f3n de Bombeo de Aguas Sanitarias Los Corozos", "asset_type": "water", "asset_subtype": "pumping_station", "municipality": "unknown", "geometry_type": "polygon", "status": "active", "source_ref": "PR_Geodata/pumping_station.geojson (OSM)", "evidence_tier": "T3", "confidence": 60, "review_status": "needs_review", "operator": "Autoridad de Acueductos y Alcantarillados", "lat": 18.446344, "lon": -66.044846}
{"asset_id": "PMP_430399956", "asset_name": "Estaci\u00f3n de Bombas de Aguas Sanitarias El Cabo", "asset_type": "water", "asset_subtype": "pumping_station", "municipality": "unknown", "geometry_type": "polygon", "status": "active", "source_ref": "PR_Geodata/pumping_station.geojson (OSM)", "evidence_tier": "T3", "confidence": 60, "review_status": "needs_review", "operator": "Autoridad de Acueductos y Alcantarillados", "lat": 18.425029, "lon": -65.866202}
{"asset_id": "PMP_530437370", "asset_name": "Pumping Station 530437370", "asset_type": "water", "asset_subtype": "pumping_station", "municipality": "unknown", "geometry_type": "polygon", "status": "active", "source_ref": "PR_Geodata/pumping_station.geojson (OSM)", "evidence_tier": "T3", "confidence": 60, "review_status": "needs_review", "lat": 17.970273, "lon": -66.602142}
{"asset_id": "PMP_532042288", "asset_name": "Pumping Station 532042288", "asset_type": "water", "asset_subtype": "pumping_station", "municipality": "unknown", "geometry_type": "polygon", "status": "active", "source_ref": "PR_Geodata/pumping_station.geojson (OSM)", "evidence_tier": "T3", "confidence": 60, "review_status": "needs_review", "lat": 18.073255, "lon": -66.963927}
{"asset_id": "PMP_532091415", "asset_name": "Pumping Station 532091415", "asset_type": "water", "asset_subtype": "pumping_station", "municipality": "unknown", "geometry_type": "polygon", "status": "active", "source_ref": "PR_Geodata/pumping_station.geojson (OSM)", "evidence_tier": "T3", "confidence": 60, "review_status": "needs_review", "lat": 18.079657, "lon": -66.97566}
{"asset_id": "PMP_532091416", "asset_name": "Pumping Station 532091416", "asset_type": "water", "asset_subtype": "pumping_station", "municipality": "unknown", "geometry_type": "polygon", "status": "active", "source_ref": "PR_Geodata/pumping_station.geojson (OSM)", "evidence_tier": "T3", "confidence": 60, "review_status": "needs_review", "lat": 18.079265, "lon": -66.977649}
{"asset_id": "PMP_533043475", "asset_name": "Estaci\u00f3n de Bombeo Bechara", "asset_type": "water", "asset_subtype": "pumping_station", "municipality": "unknown", "geometry_type": "polygon", "status": "active", "source_ref": "PR_Geodata/pumping_station.geojson (OSM)", "evidence_tier": "T3", "confidence": 60, "review_status": "needs_review", "lat": 18.42512, "lon": -66.092513}
{"asset_id": "PMP_540871201", "asset_name": "Pumping Station 540871201", "asset_type": "water", "asset_subtype": "pumping_station", "municipality": "unknown", "geometry_type": "polygon", "status": "active", "source_ref": "PR_Geodata/pumping_station.geojson (OSM)", "evidence_tier": "T3", "confidence": 60, "review_status": "needs_review", "lat": 18.435528, "lon": -66.058098}
{"asset_id": "PMP_1126523612", "asset_name": "Bomba Agua", "asset_type": "water", "asset_subtype": "pumping_station", "municipality": "unknown", "geometry_type": "polygon", "status": "active", "source_ref": "PR_Geodata/pumping_station.geojson (OSM)", "evidence_tier": "T3", "confidence": 60, "review_status": "needs_review", "lat": 18.294135, "lon": -67.205283}
{"asset_id": "PMP_1126753102", "asset_name": "Bomba de Agua", "asset_type": "water", "asset_subtype": "pumping_station", "municipality": "unknown", "geometry_type": "polygon", "status": "active", "source_ref": "PR_Geodata/pumping_station.geojson (OSM)", "evidence_tier": "T3", "confidence": 60, "review_status": "needs_review", "lat": 18.290588, "lon": -67.193113}
{"asset_id": "PMP_1434317364", "asset_name": "Pumping Station 1434317364", "asset_type": "water", "asset_subtype": "pumping_station", "municipality": "unknown", "geometry_type": "polygon", "status": "active", "source_ref": "PR_Geodata/pumping_station.geojson (OSM)", "evidence_tier": "T3", "confidence": 60, "review_status": "needs_review", "operator": "Autoridad de Acueductos y Alcantarillados", "lat": 18.417234, "lon": -66.090114}
{"asset_id": "RSV_-7704555", "asset_name": "Reservoir -7704555", "asset_type": "water", "asset_subtype": "reservoir", "municipality": "unknown", "geometry_type": "polygon", "status": "active", "source_ref": "PR_Geodata/water_reservoir.geojson (OSM)", "evidence_tier": "T3", "confidence": 60, "review_status": "needs_review", "lat": 18.413394, "lon": -65.961111}
{"asset_id": "RSV_-7646874", "asset_name": "Lago Dos Bocas", "asset_type": "water", "asset_subtype": "reservoir", "municipality": "unknown", "geometry_type": "polygon", "status": "active", "source_ref": "PR_Geodata/water_reservoir.geojson (OSM)", "evidence_tier": "T3", "confidence": 60, "review_status": "needs_review", "lat": 18.32172, "lon": -66.659293}
{"asset_id": "RSV_44106930", "asset_name": "Refugio de Vida Silvestre Lago Guajataca", "asset_type": "water", "asset_subtype": "reservoir", "municipality": "unknown", "geometry_type": "polygon", "status": "active", "source_ref": "PR_Geodata/water_reservoir.geojson (OSM)", "evidence_tier": "T3", "confidence": 60, "review_status": "needs_review", "lat": 18.372438, "lon": -66.912158}
{"asset_id": "RSV_59708549", "asset_name": "Lago Caonillas", "asset_type": "water", "asset_subtype": "reservoir", "municipality": "unknown", "geometry_type": "polygon", "status": "active", "source_ref": "PR_Geodata/water_reservoir.geojson (OSM)", "evidence_tier": "T3", "confidence": 60, "review_status": "needs_review", "lat": 18.261888, "lon": -66.654986}
{"asset_id": "RSV_60107724", "asset_name": "Lago Patillas", "asset_type": "water", "asset_subtype": "reservoir", "municipality": "unknown", "geometry_type": "polygon", "status": "active", "source_ref": "PR_Geodata/water_reservoir.geojson (OSM)", "evidence_tier": "T3", "confidence": 60, "review_status": "needs_review", "lat": 18.02436, "lon": -66.017758}
{"asset_id": "RSV_60166930", "asset_name": "Lago Carite", "asset_type": "water", "asset_subtype": "reservoir", "municipality": "unknown", "geometry_type": "polygon", "status": "active", "source_ref": "PR_Geodata/water_reservoir.geojson (OSM)", "evidence_tier": "T3", "confidence": 60, "review_status": "needs_review", "lat": 18.070792, "lon": -66.09984}
{"asset_id": "RSV_60202860", "asset_name": "Lago N\u00ba 5", "asset_type": "water", "asset_subtype": "reservoir", "municipality": "unknown", "geometry_type": "polygon", "status": "active", "source_ref": "PR_Geodata/water_reservoir.geojson (OSM)", "evidence_tier": "T3", "confidence": 60, "review_status": "needs_review", "lat": 18.059352, "lon": -66.56282}
{"asset_id": "RSV_60231606", "asset_name": "Represa de Comer\u00edo", "asset_type": "water", "asset_subtype": "reservoir", "municipality": "unknown", "geometry_type": "polygon", "status": "active", "source_ref": "PR_Geodata/water_reservoir.geojson (OSM)", "evidence_tier": "T3", "confidence": 60, "review_status": "needs_review", "lat": 18.25253, "lon": -66.204698}
{"asset_id": "RSV_60335565", "asset_name": "Refugio de Vida Silvestre Lago La Plata", "asset_type": "water", "asset_subtype": "reservoir", "municipality": "unknown", "geometry_type": "polygon", "status": "active", "source_ref": "PR_Geodata/water_reservoir.geojson (OSM)", "evidence_tier": "T3", "confidence": 60, "review_status": "needs_review", "lat": 18.316773, "lon": -66.221374}
{"asset_id": "RSV_60359576", "asset_name": "Lago de Cidra", "asset_type": "water", "asset_subtype": "reservoir", "municipality": "unknown", "geometry_type": "polygon", "status": "active", "source_ref": "PR_Geodata/water_reservoir.geojson (OSM)", "evidence_tier": "T3", "confidence": 60, "review_status": "needs_review", "lat": 18.188683, "lon": -66.139436}
{"asset_id": "RSV_60382721", "asset_name": "Reservoir 60382721", "asset_type": "water", "asset_subtype": "reservoir", "municipality": "unknown", "geometry_type": "polygon", "status": "active", "source_ref": "PR_Geodata/water_reservoir.geojson (OSM)", "evidence_tier": "T3", "confidence": 60, "review_status": "needs_review", "lat": 18.199752, "lon": -66.123807}
{"asset_id": "RSV_60674094", "asset_name": "Lago Lo\u00edza", "asset_type": "water", "asset_subtype": "reservoir", "municipality": "unknown", "geometry_type": "polygon", "status": "active", "source_ref": "PR_Geodata/water_reservoir.geojson (OSM)", "evidence_tier": "T3", "confidence": 60, "review_status": "needs_review", "lat": 18.312403, "lon": -66.020882}
{"asset_id": "RSV_60778846", "asset_name": "Refugio de Vida Silvestre Lago Lucchetti", "asset_type": "water", "asset_subtype": "reservoir", "municipality": "unknown", "geometry_type": "polygon", "status": "active", "source_ref": "PR_Geodata/water_reservoir.geojson (OSM)", "evidence_tier": "T3", "confidence": 60, "review_status": "needs_review", "lat": 18.096624, "lon": -66.868192}
{"asset_id": "RSV_73623233", "asset_name": "Lago de Matrullas", "asset_type": "water", "asset_subtype": "reservoir", "municipality": "unknown", "geometry_type": "polygon", "status": "active", "source_ref": "PR_Geodata/water_reservoir.geojson (OSM)", "evidence_tier": "T3", "confidence": 60, "review_status": "needs_review", "lat": 18.206329, "lon": -66.479353}
{"asset_id": "RSV_272151308", "asset_name": "Lago Cerrillos", "asset_type": "water", "asset_subtype": "reservoir", "municipality": "unknown", "geometry_type": "polygon", "status": "active", "source_ref": "PR_Geodata/water_reservoir.geojson (OSM)", "evidence_tier": "T3", "confidence": 60, "review_status": "needs_review", "lat": 18.091802, "lon": -66.580068}
{"asset_id": "RSV_297052636", "asset_name": "Lago Moline", "asset_type": "water", "asset_subtype": "reservoir", "municipality": "unknown", "geometry_type": "polygon", "status": "active", "source_ref": "PR_Geodata/water_reservoir.geojson (OSM)", "evidence_tier": "T3", "confidence": 60, "review_status": "needs_review", "lat": 18.055665, "lon": -66.565661}
{"asset_id": "RSV_297052642", "asset_name": "Lago N\u00ba 4", "asset_type": "water", "asset_subtype": "reservoir", "municipality": "unknown", "geometry_type": "polygon", "status": "active", "source_ref": "PR_Geodata/water_reservoir.geojson (OSM)", "evidence_tier": "T3", "confidence": 60, "review_status": "needs_review", "lat": 18.055523, "lon": -66.571809}
{"asset_id": "RSV_297052643", "asset_name": "Lago N\u00ba 2", "asset_type": "water", "asset_subtype": "reservoir", "municipality": "unknown", "geometry_type": "polygon", "status": "active", "source_ref": "PR_Geodata/water_reservoir.geojson (OSM)", "evidence_tier": "T3", "confidence": 60, "review_status": "needs_review", "lat": 18.063354, "lon": -66.564579}
{"asset_id": "RSV_308455367", "asset_name": "Lago Alto", "asset_type": "water", "asset_subtype": "reservoir", "municipality": "unknown", "geometry_type": "polygon", "status": "active", "source_ref": "PR_Geodata/water_reservoir.geojson (OSM)", "evidence_tier": "T3", "confidence": 60, "review_status": "needs_review", "lat": 18.365793, "lon": -66.005085}
{"asset_id": "RSV_324482514", "asset_name": "Reservoir 324482514", "asset_type": "water", "asset_subtype": "reservoir", "municipality": "unknown", "geometry_type": "polygon", "status": "active", "source_ref": "PR_Geodata/water_reservoir.geojson (OSM)", "evidence_tier": "T3", "confidence": 60, "review_status": "needs_review", "lat": 18.294213, "lon": -65.659221}
{"asset_id": "RSV_331323831", "asset_name": "Lago Guayo", "asset_type": "water", "asset_subtype": "reservoir", "municipality": "unknown", "geometry_type": "polygon", "status": "active", "source_ref": "PR_Geodata/water_reservoir.geojson (OSM)", "evidence_tier": "T3", "confidence": 60, "review_status": "needs_review", "lat": 18.201751, "lon": -66.831796}
{"asset_id": "RSV_361605006", "asset_name": "Embalse de Naguabo", "asset_type": "water", "asset_subtype": "reservoir", "municipality": "unknown", "geometry_type": "polygon", "status": "active", "source_ref": "PR_Geodata/water_reservoir.geojson (OSM)", "evidence_tier": "T3", "confidence": 60, "review_status": "needs_review", "lat": 18.224577, "lon": -65.777336}
{"asset_id": "RSV_365521570", "asset_name": "Lago Las Curias", "asset_type": "water", "asset_subtype": "reservoir", "municipality": "unknown", "geometry_type": "polygon", "status": "active", "source_ref": "PR_Geodata/water_reservoir.geojson (OSM)", "evidence_tier": "T3", "confidence": 60, "review_status": "needs_review", "lat": 18.341368, "lon": -66.046111}
{"asset_id": "RSV_397036349", "asset_name": "Reservoir 397036349", "asset_type": "water", "asset_subtype": "reservoir", "municipality": "unknown", "geometry_type": "polygon", "status": "active", "source_ref": "PR_Geodata/water_reservoir.geojson (OSM)", "evidence_tier": "T3", "confidence": 60, "review_status": "needs_review", "lat": 18.492696, "lon": -67.148851}
{"asset_id": "RSV_398442555", "asset_name": "Presada Loco", "asset_type": "water", "asset_subtype": "reservoir", "municipality": "unknown", "geometry_type": "polygon", "status": "active", "source_ref": "PR_Geodata/water_reservoir.geojson (OSM)", "evidence_tier": "T3", "confidence": 60, "review_status": "needs_review", "lat": 18.044909, "lon": -66.884686}
{"asset_id": "RSV_399090871", "asset_name": "Lago Melania", "asset_type": "water", "asset_subtype": "reservoir", "municipality": "unknown", "geometry_type": "polygon", "status": "active", "source_ref": "PR_Geodata/water_reservoir.geojson (OSM)", "evidence_tier": "T3", "confidence": 60, "review_status": "needs_review", "lat": 17.977788, "lon": -66.142661}
{"asset_id": "RSV_401014068", "asset_name": "Lago Garzas", "asset_type": "water", "asset_subtype": "reservoir", "municipality": "unknown", "geometry_type": "polygon", "status": "active", "source_ref": "PR_Geodata/water_reservoir.geojson (OSM)", "evidence_tier": "T3", "confidence": 60, "review_status": "needs_review", "lat": 18.134449, "lon": -66.743747}
{"asset_id": "RSV_420878389", "asset_name": "Lago La Torre", "asset_type": "water", "asset_subtype": "reservoir", "municipality": "unknown", "geometry_type": "polygon", "status": "active", "source_ref": "PR_Geodata/water_reservoir.geojson (OSM)", "evidence_tier": "T3", "confidence": 60, "review_status": "needs_review", "lat": 18.049465, "lon": -66.539789}
{"asset_id": "RSV_456694817", "asset_name": "Reservoir 456694817", "asset_type": "water", "asset_subtype": "reservoir", "municipality": "unknown", "geometry_type": "polygon", "status": "active", "source_ref": "PR_Geodata/water_reservoir.geojson (OSM)", "evidence_tier": "T3", "confidence": 60, "review_status": "needs_review", "lat": 18.427468, "lon": -66.698819}
{"asset_id": "RSV_457744112", "asset_name": "Lago Guajataca", "asset_type": "water", "asset_subtype": "reservoir", "municipality": "unknown", "geometry_type": "polygon", "status": "active", "source_ref": "PR_Geodata/water_reservoir.geojson (OSM)", "evidence_tier": "T3", "confidence": 60, "review_status": "needs_review", "lat": 18.360106, "lon": -66.912703}
{"asset_id": "RSV_475556830", "asset_name": "Cuenca Pluvial", "asset_type": "water", "asset_subtype": "reservoir", "municipality": "unknown", "geometry_type": "polygon", "status": "active", "source_ref": "PR_Geodata/water_reservoir.geojson (OSM)", "evidence_tier": "T3", "confidence": 60, "review_status": "needs_review", "lat": 18.476417, "lon": -67.156525}
{"asset_id": "RSV_475556831", "asset_name": "Potential Groundwater Connection", "asset_type": "water", "asset_subtype": "reservoir", "municipality": "unknown", "geometry_type": "polygon", "status": "active", "source_ref": "PR_Geodata/water_reservoir.geojson (OSM)", "evidence_tier": "T3", "confidence": 60, "review_status": "needs_review", "lat": 18.478885, "lon": -67.161403}
{"asset_id": "RSV_475556833", "asset_name": "Salida de Cuenca Pluvial", "asset_type": "water", "asset_subtype": "reservoir", "municipality": "unknown", "geometry_type": "polygon", "status": "active", "source_ref": "PR_Geodata/water_reservoir.geojson (OSM)", "evidence_tier": "T3", "confidence": 60, "review_status": "needs_review", "lat": 18.483106, "lon": -67.165476}
{"asset_id": "RSV_475556835", "asset_name": "Cuenca Pluvial", "asset_type": "water", "asset_subtype": "reservoir", "municipality": "unknown", "geometry_type": "polygon", "status": "active", "source_ref": "PR_Geodata/water_reservoir.geojson (OSM)", "evidence_tier": "T3", "confidence": 60, "review_status": "needs_review", "lat": 18.482774, "lon": -67.161393}
{"asset_id": "RSV_484280121", "asset_name": "Lago Toa Vaca", "asset_type": "water", "asset_subtype": "reservoir", "municipality": "unknown", "geometry_type": "polygon", "status": "active", "source_ref": "PR_Geodata/water_reservoir.geojson (OSM)", "evidence_tier": "T3", "confidence": 60, "review_status": "needs_review", "lat": 18.102588, "lon": -66.468165}
{"asset_id": "RSV_502894776", "asset_name": "Lago Guayabal", "asset_type": "water", "asset_subtype": "reservoir", "municipality": "unknown", "geometry_type": "polygon", "status": "active", "source_ref": "PR_Geodata/water_reservoir.geojson (OSM)", "evidence_tier": "T3", "confidence": 60, "review_status": "needs_review", "lat": 18.094166, "lon": -66.501988}
{"asset_id": "RSV_502962086", "asset_name": "Reservoir 502962086", "asset_type": "water", "asset_subtype": "reservoir", "municipality": "unknown", "geometry_type": "polygon", "status": "active", "source_ref": "PR_Geodata/water_reservoir.geojson (OSM)", "evidence_tier": "T3", "confidence": 60, "review_status": "needs_review", "lat": 17.981682, "lon": -66.242368}
{"asset_id": "RSV_527008452", "asset_name": "Reservoir 527008452", "asset_type": "water", "asset_subtype": "reservoir", "municipality": "unknown", "geometry_type": "polygon", "status": "active", "source_ref": "PR_Geodata/water_reservoir.geojson (OSM)", "evidence_tier": "T3", "confidence": 60, "review_status": "needs_review", "lat": 18.474121, "lon": -66.975176}
{"asset_id": "RSV_527193594", "asset_name": "Reservoir 527193594", "asset_type": "water", "asset_subtype": "reservoir", "municipality": "unknown", "geometry_type": "polygon", "status": "active", "source_ref": "PR_Geodata/water_reservoir.geojson (OSM)", "evidence_tier": "T3", "confidence": 60, "review_status": "needs_review", "lat": 18.436763, "lon": -67.093397}
{"asset_id": "RSV_527339065", "asset_name": "Reservoir 527339065", "asset_type": "water", "asset_subtype": "reservoir", "municipality": "unknown", "geometry_type": "polygon", "status": "active", "source_ref": "PR_Geodata/water_reservoir.geojson (OSM)", "evidence_tier": "T3", "confidence": 60, "review_status": "needs_review", "lat": 18.291898, "lon": -66.934361}
{"asset_id": "RSV_527784586", "asset_name": "Reservoir 527784586", "asset_type": "water", "asset_subtype": "reservoir", "municipality": "unknown", "geometry_type": "polygon", "status": "active", "source_ref": "PR_Geodata/water_reservoir.geojson (OSM)", "evidence_tier": "T3", "confidence": 60, "review_status": "needs_review", "lat": 18.447203, "lon": -67.141388}
{"asset_id": "RSV_527784587", "asset_name": "Reservoir 527784587", "asset_type": "water", "asset_subtype": "reservoir", "municipality": "unknown", "geometry_type": "polygon", "status": "active", "source_ref": "PR_Geodata/water_reservoir.geojson (OSM)", "evidence_tier": "T3", "confidence": 60, "review_status": "needs_review", "lat": 18.44716, "lon": -67.142721}
{"asset_id": "RSV_528172884", "asset_name": "Reservoir 528172884", "asset_type": "water", "asset_subtype": "reservoir", "municipality": "unknown", "geometry_type": "polygon", "status": "active", "source_ref": "PR_Geodata/water_reservoir.geojson (OSM)", "evidence_tier": "T3", "confidence": 60, "review_status": "needs_review", "lat": 18.33703, "lon": -65.799621}
{"asset_id": "RSV_528517506", "asset_name": "Reservoir 528517506", "asset_type": "water", "asset_subtype": "reservoir", "municipality": "unknown", "geometry_type": "polygon", "status": "active", "source_ref": "PR_Geodata/water_reservoir.geojson (OSM)", "evidence_tier": "T3", "confidence": 60, "review_status": "needs_review", "lat": 18.369281, "lon": -65.844699}
{"asset_id": "RSV_528738468", "asset_name": "Reservoir 528738468", "asset_type": "water", "asset_subtype": "reservoir", "municipality": "unknown", "geometry_type": "polygon", "status": "active", "source_ref": "PR_Geodata/water_reservoir.geojson (OSM)", "evidence_tier": "T3", "confidence": 60, "review_status": "needs_review", "lat": 18.38368, "lon": -65.885546}
{"asset_id": "RSV_528855422", "asset_name": "Reservoir 528855422", "asset_type": "water", "asset_subtype": "reservoir", "municipality": "unknown", "geometry_type": "polygon", "status": "active", "source_ref": "PR_Geodata/water_reservoir.geojson (OSM)", "evidence_tier": "T3", "confidence": 60, "review_status": "needs_review", "lat": 18.210857, "lon": -65.982288}
{"asset_id": "RSV_528881333", "asset_name": "Reservoir 528881333", "asset_type": "water", "asset_subtype": "reservoir", "municipality": "unknown", "geometry_type": "polygon", "status": "active", "source_ref": "PR_Geodata/water_reservoir.geojson (OSM)", "evidence_tier": "T3", "confidence": 60, "review_status": "needs_review", "lat": 18.028753, "lon": -65.982318}
{"asset_id": "RSV_528919924", "asset_name": "Lago Viv\u00ed", "asset_type": "water", "asset_subtype": "reservoir", "municipality": "unknown", "geometry_type": "polygon", "status": "active", "source_ref": "PR_Geodata/water_reservoir.geojson (OSM)", "evidence_tier": "T3", "confidence": 60, "review_status": "needs_review", "lat": 18.228389, "lon": -66.679215}
{"asset_id": "RSV_529015932", "asset_name": "Lago Pellejas", "asset_type": "water", "asset_subtype": "reservoir", "municipality": "unknown", "geometry_type": "polygon", "status": "active", "source_ref": "PR_Geodata/water_reservoir.geojson (OSM)", "evidence_tier": "T3", "confidence": 60, "review_status": "needs_review", "lat": 18.209567, "lon": -66.705293}
{"asset_id": "RSV_529110360", "asset_name": "Reservoir 529110360", "asset_type": "water", "asset_subtype": "reservoir", "municipality": "unknown", "geometry_type": "polygon", "status": "active", "source_ref": "PR_Geodata/water_reservoir.geojson (OSM)", "evidence_tier": "T3", "confidence": 60, "review_status": "needs_review", "lat": 18.039419, "lon": -66.354433}
{"asset_id": "RSV_529247296", "asset_name": "Reservoir 529247296", "asset_type": "water", "asset_subtype": "reservoir", "municipality": "unknown", "geometry_type": "polygon", "status": "active", "source_ref": "PR_Geodata/water_reservoir.geojson (OSM)", "evidence_tier": "T3", "confidence": 60, "review_status": "needs_review", "lat": 17.950223, "lon": -66.229792}
{"asset_id": "RSV_529247297", "asset_name": "Reservoir 529247297", "asset_type": "water", "asset_subtype": "reservoir", "municipality": "unknown", "geometry_type": "polygon", "status": "active", "source_ref": "PR_Geodata/water_reservoir.geojson (OSM)", "evidence_tier": "T3", "confidence": 60, "review_status": "needs_review", "lat": 17.95048, "lon": -66.230087}
{"asset_id": "RSV_529484768", "asset_name": "Lago Adjuntas", "asset_type": "water", "asset_subtype": "reservoir", "municipality": "unknown", "geometry_type": "polygon", "status": "active", "source_ref": "PR_Geodata/water_reservoir.geojson (OSM)", "evidence_tier": "T3", "confidence": 60, "review_status": "needs_review", "lat": 18.198562, "lon": -66.732017}
{"asset_id": "RSV_529707483", "asset_name": "Lago Portugu\u00e9s", "asset_type": "water", "asset_subtype": "reservoir", "municipality": "unknown", "geometry_type": "polygon", "status": "active", "source_ref": "PR_Geodata/water_reservoir.geojson (OSM)", "evidence_tier": "T3", "confidence": 60, "review_status": "needs_review", "lat": 18.066684, "lon": -66.634379}
{"asset_id": "RSV_529967421", "asset_name": "Reservoir 529967421", "asset_type": "water", "asset_subtype": "reservoir", "municipality": "unknown", "geometry_type": "polygon", "status": "active", "source_ref": "PR_Geodata/water_reservoir.geojson (OSM)", "evidence_tier": "T3", "confidence": 60, "review_status": "needs_review", "lat": 17.962848, "lon": -66.140588}
{"asset_id": "RSV_530357876", "asset_name": "Reservoir 530357876", "asset_type": "water", "asset_subtype": "reservoir", "municipality": "unknown", "geometry_type": "polygon", "status": "active", "source_ref": "PR_Geodata/water_reservoir.geojson (OSM)", "evidence_tier": "T3", "confidence": 60, "review_status": "needs_review", "lat": 17.98239, "lon": -66.643651}
{"asset_id": "RSV_530548387", "asset_name": "Reservoir 530548387", "asset_type": "water", "asset_subtype": "reservoir", "municipality": "unknown", "geometry_type": "polygon", "status": "active", "source_ref": "PR_Geodata/water_reservoir.geojson (OSM)", "evidence_tier": "T3", "confidence": 60, "review_status": "needs_review", "lat": 18.108381, "lon": -66.354199}
{"asset_id": "RSV_530810226", "asset_name": "Reservoir 530810226", "asset_type": "water", "asset_subtype": "reservoir", "municipality": "unknown", "geometry_type": "polygon", "status": "active", "source_ref": "PR_Geodata/water_reservoir.geojson (OSM)", "evidence_tier": "T3", "confidence": 60, "review_status": "needs_review", "lat": 18.10818, "lon": -66.54023}
{"asset_id": "RSV_531013208", "asset_name": "Reservoir 531013208", "asset_type": "water", "asset_subtype": "reservoir", "municipality": "unknown", "geometry_type": "polygon", "status": "active", "source_ref": "PR_Geodata/water_reservoir.geojson (OSM)", "evidence_tier": "T3", "confidence": 60, "review_status": "needs_review", "lat": 18.028862, "lon": -66.37896}
{"asset_id": "RSV_531077818", "asset_name": "Reservoir 531077818", "asset_type": "water", "asset_subtype": "reservoir", "municipality": "unknown", "geometry_type": "polygon", "status": "active", "source_ref": "PR_Geodata/water_reservoir.geojson (OSM)", "evidence_tier": "T3", "confidence": 60, "review_status": "needs_review", "lat": 18.064106, "lon": -66.605844}
{"asset_id": "RSV_531405651", "asset_name": "Reservoir 531405651", "asset_type": "water", "asset_subtype": "reservoir", "municipality": "unknown", "geometry_type": "polygon", "status": "active", "source_ref": "PR_Geodata/water_reservoir.geojson (OSM)", "evidence_tier": "T3", "confidence": 60, "review_status": "needs_review", "lat": 18.366229, "lon": -66.459843}
{"asset_id": "RSV_531471758", "asset_name": "Reservoir 531471758", "asset_type": "water", "asset_subtype": "reservoir", "municipality": "unknown", "geometry_type": "polygon", "status": "active", "source_ref": "PR_Geodata/water_reservoir.geojson (OSM)", "evidence_tier": "T3", "confidence": 60, "review_status": "needs_review", "lat": 18.375106, "lon": -66.610234}
{"asset_id": "RSV_531516791", "asset_name": "Water Treatment", "asset_type": "water", "asset_subtype": "reservoir", "municipality": "unknown", "geometry_type": "polygon", "status": "active", "source_ref": "PR_Geodata/water_reservoir.geojson (OSM)", "evidence_tier": "T3", "confidence": 60, "review_status": "needs_review", "lat": 17.988715, "lon": -66.752607}
{"asset_id": "RSV_531516792", "asset_name": "Water Treatment", "asset_type": "water", "asset_subtype": "reservoir", "municipality": "unknown", "geometry_type": "polygon", "status": "active", "source_ref": "PR_Geodata/water_reservoir.geojson (OSM)", "evidence_tier": "T3", "confidence": 60, "review_status": "needs_review", "lat": 17.988352, "lon": -66.752386}
{"asset_id": "RSV_531516793", "asset_name": "Water Treatment", "asset_type": "water", "asset_subtype": "reservoir", "municipality": "unknown", "geometry_type": "polygon", "status": "active", "source_ref": "PR_Geodata/water_reservoir.geojson (OSM)", "evidence_tier": "T3", "confidence": 60, "review_status": "needs_review", "lat": 17.988081, "lon": -66.751391}
{"asset_id": "RSV_531523772", "asset_name": "Reservoir 531523772", "asset_type": "water", "asset_subtype": "reservoir", "municipality": "unknown", "geometry_type": "polygon", "status": "active", "source_ref": "PR_Geodata/water_reservoir.geojson (OSM)", "evidence_tier": "T3", "confidence": 60, "review_status": "needs_review", "lat": 17.998331, "lon": -66.754415}
{"asset_id": "RSV_531640786", "asset_name": "Reservoir 531640786", "asset_type": "water", "asset_subtype": "reservoir", "municipality": "unknown", "geometry_type": "polygon", "status": "active", "source_ref": "PR_Geodata/water_reservoir.geojson (OSM)", "evidence_tier": "T3", "confidence": 60, "review_status": "needs_review", "lat": 18.332621, "lon": -66.795803}
{"asset_id": "RSV_531669738", "asset_name": "Reservoir 531669738", "asset_type": "water", "asset_subtype": "reservoir", "municipality": "unknown", "geometry_type": "polygon", "status": "active", "source_ref": "PR_Geodata/water_reservoir.geojson (OSM)", "evidence_tier": "T3", "confidence": 60, "review_status": "needs_review", "lat": 18.351347, "lon": -66.857081}
{"asset_id": "RSV_531989831", "asset_name": "Lago El Guineo", "asset_type": "water", "asset_subtype": "reservoir", "municipality": "unknown", "geometry_type": "polygon", "status": "active", "source_ref": "PR_Geodata/water_reservoir.geojson (OSM)", "evidence_tier": "T3", "confidence": 60, "review_status": "needs_review", "lat": 18.157282, "lon": -66.52919}
{"asset_id": "RSV_532700163", "asset_name": "R\u00edo La Plata", "asset_type": "water", "asset_subtype": "reservoir", "municipality": "unknown", "geometry_type": "polygon", "status": "active", "source_ref": "PR_Geodata/water_reservoir.geojson (OSM)", "evidence_tier": "T3", "confidence": 60, "review_status": "needs_review", "lat": 18.145969, "lon": -66.158529}
{"asset_id": "RSV_532808967", "asset_name": "Reservoir 532808967", "asset_type": "water", "asset_subtype": "reservoir", "municipality": "unknown", "geometry_type": "polygon", "status": "active", "source_ref": "PR_Geodata/water_reservoir.geojson (OSM)", "evidence_tier": "T3", "confidence": 60, "review_status": "needs_review", "lat": 18.462341, "lon": -66.809444}
{"asset_id": "RSV_532872792", "asset_name": "Reservoir 532872792", "asset_type": "water", "asset_subtype": "reservoir", "municipality": "unknown", "geometry_type": "polygon", "status": "active", "source_ref": "PR_Geodata/water_reservoir.geojson (OSM)", "evidence_tier": "T3", "confidence": 60, "review_status": "needs_review", "lat": 18.486388, "lon": -66.793231}
{"asset_id": "RSV_533101458", "asset_name": "Reservoir 533101458", "asset_type": "water", "asset_subtype": "reservoir", "municipality": "unknown", "geometry_type": "polygon", "status": "active", "source_ref": "PR_Geodata/water_reservoir.geojson (OSM)", "evidence_tier": "T3", "confidence": 60, "review_status": "needs_review", "lat": 18.034639, "lon": -67.083524}
{"asset_id": "RSV_533525452", "asset_name": "Reservoir 533525452", "asset_type": "water", "asset_subtype": "reservoir", "municipality": "unknown", "geometry_type": "polygon", "status": "active", "source_ref": "PR_Geodata/water_reservoir.geojson (OSM)", "evidence_tier": "T3", "confidence": 60, "review_status": "needs_review", "lat": 18.144686, "lon": -65.789731}
{"asset_id": "RSV_534995543", "asset_name": "Reservoir 534995543", "asset_type": "water", "asset_subtype": "reservoir", "municipality": "unknown", "geometry_type": "polygon", "status": "active", "source_ref": "PR_Geodata/water_reservoir.geojson (OSM)", "evidence_tier": "T3", "confidence": 60, "review_status": "needs_review", "lat": 18.030445, "lon": -67.075761}
{"asset_id": "RSV_534995557", "asset_name": "Reservoir 534995557", "asset_type": "water", "asset_subtype": "reservoir", "municipality": "unknown", "geometry_type": "polygon", "status": "active", "source_ref": "PR_Geodata/water_reservoir.geojson (OSM)", "evidence_tier": "T3", "confidence": 60, "review_status": "needs_review", "lat": 18.026209, "lon": -67.072994}
{"asset_id": "RSV_534995559", "asset_name": "Reservoir 534995559", "asset_type": "water", "asset_subtype": "reservoir", "municipality": "unknown", "geometry_type": "polygon", "status": "active", "source_ref": "PR_Geodata/water_reservoir.geojson (OSM)", "evidence_tier": "T3", "confidence": 60, "review_status": "needs_review", "lat": 18.028131, "lon": -67.074365}
{"asset_id": "RSV_535002438", "asset_name": "Reservoir 535002438", "asset_type": "water", "asset_subtype": "reservoir", "municipality": "unknown", "geometry_type": "polygon", "status": "active", "source_ref": "PR_Geodata/water_reservoir.geojson (OSM)", "evidence_tier": "T3", "confidence": 60, "review_status": "needs_review", "lat": 18.035677, "lon": -67.077774}
{"asset_id": "RSV_535003132", "asset_name": "Reservoir 535003132", "asset_type": "water", "asset_subtype": "reservoir", "municipality": "unknown", "geometry_type": "polygon", "status": "active", "source_ref": "PR_Geodata/water_reservoir.geojson (OSM)", "evidence_tier": "T3", "confidence": 60, "review_status": "needs_review", "lat": 18.034002, "lon": -67.065965}
{"asset_id": "RSV_535014254", "asset_name": "Reservoir 535014254", "asset_type": "water", "asset_subtype": "reservoir", "municipality": "unknown", "geometry_type": "polygon", "status": "active", "source_ref": "PR_Geodata/water_reservoir.geojson (OSM)", "evidence_tier": "T3", "confidence": 60, "review_status": "needs_review", "lat": 18.037822, "lon": -67.069771}
{"asset_id": "RSV_535171691", "asset_name": "Reservoir 535171691", "asset_type": "water", "asset_subtype": "reservoir", "municipality": "unknown", "geometry_type": "polygon", "status": "active", "source_ref": "PR_Geodata/water_reservoir.geojson (OSM)", "evidence_tier": "T3", "confidence": 60, "review_status": "needs_review", "lat": 17.977631, "lon": -67.062648}
{"asset_id": "RSV_535171692", "asset_name": "Reservoir 535171692", "asset_type": "water", "asset_subtype": "reservoir", "municipality": "unknown", "geometry_type": "polygon", "status": "active", "source_ref": "PR_Geodata/water_reservoir.geojson (OSM)", "evidence_tier": "T3", "confidence": 60, "review_status": "needs_review", "lat": 17.977953, "lon": -67.062611}
{"asset_id": "RSV_535171693", "asset_name": "Reservoir 535171693", "asset_type": "water", "asset_subtype": "reservoir", "municipality": "unknown", "geometry_type": "polygon", "status": "active", "source_ref": "PR_Geodata/water_reservoir.geojson (OSM)", "evidence_tier": "T3", "confidence": 60, "review_status": "needs_review", "lat": 17.977983, "lon": -67.062927}
{"asset_id": "RSV_535171694", "asset_name": "Reservoir 535171694", "asset_type": "water", "asset_subtype": "reservoir", "municipality": "unknown", "geometry_type": "polygon", "status": "active", "source_ref": "PR_Geodata/water_reservoir.geojson (OSM)", "evidence_tier": "T3", "confidence": 60, "review_status": "needs_review", "lat": 17.977668, "lon": -67.062982}
{"asset_id": "RSV_536288975", "asset_name": "Reservoir 536288975", "asset_type": "water", "asset_subtype": "reservoir", "municipality": "unknown", "geometry_type": "polygon", "status": "active", "source_ref": "PR_Geodata/water_reservoir.geojson (OSM)", "evidence_tier": "T3", "confidence": 60, "review_status": "needs_review", "lat": 18.00651, "lon": -66.657354}
{"asset_id": "RSV_536983099", "asset_name": "Reservoir 536983099", "asset_type": "water", "asset_subtype": "reservoir", "municipality": "unknown", "geometry_type": "polygon", "status": "active", "source_ref": "PR_Geodata/water_reservoir.geojson (OSM)", "evidence_tier": "T3", "confidence": 60, "review_status": "needs_review", "lat": 18.398986, "lon": -66.299112}
{"asset_id": "RSV_538069815", "asset_name": "Reservoir 538069815", "asset_type": "water", "asset_subtype": "reservoir", "municipality": "unknown", "geometry_type": "polygon", "status": "active", "source_ref": "PR_Geodata/water_reservoir.geojson (OSM)", "evidence_tier": "T3", "confidence": 60, "review_status": "needs_review", "lat": 18.37472, "lon": -66.022532}
{"asset_id": "RSV_538069818", "asset_name": "Reservoir 538069818", "asset_type": "water", "asset_subtype": "reservoir", "municipality": "unknown", "geometry_type": "polygon", "status": "active", "source_ref": "PR_Geodata/water_reservoir.geojson (OSM)", "evidence_tier": "T3", "confidence": 60, "review_status": "needs_review", "lat": 18.375092, "lon": -66.022489}
{"asset_id": "RSV_539139851", "asset_name": "Lago Jord\u00e1n", "asset_type": "water", "asset_subtype": "reservoir", "municipality": "unknown", "geometry_type": "polygon", "status": "active", "source_ref": "PR_Geodata/water_reservoir.geojson (OSM)", "evidence_tier": "T3", "confidence": 60, "review_status": "needs_review", "lat": 18.241326, "lon": -66.669267}
{"asset_id": "RSV_539165538", "asset_name": "Reservoir 539165538", "asset_type": "water", "asset_subtype": "reservoir", "municipality": "unknown", "geometry_type": "polygon", "status": "active", "source_ref": "PR_Geodata/water_reservoir.geojson (OSM)", "evidence_tier": "T3", "confidence": 60, "review_status": "needs_review", "lat": 18.017029, "lon": -66.485201}
{"asset_id": "RSV_539538861", "asset_name": "Reservoir 539538861", "asset_type": "water", "asset_subtype": "reservoir", "municipality": "unknown", "geometry_type": "polygon", "status": "active", "source_ref": "PR_Geodata/water_reservoir.geojson (OSM)", "evidence_tier": "T3", "confidence": 60, "review_status": "needs_review", "lat": 18.149889, "lon": -66.492488}
{"asset_id": "RSV_539641989", "asset_name": "Reservoir 539641989", "asset_type": "water", "asset_subtype": "reservoir", "municipality": "unknown", "geometry_type": "polygon", "status": "active", "source_ref": "PR_Geodata/water_reservoir.geojson (OSM)", "evidence_tier": "T3", "confidence": 60, "review_status": "needs_review", "lat": 18.102737, "lon": -66.464669}
{"asset_id": "RSV_539790420", "asset_name": "Reservoir 539790420", "asset_type": "water", "asset_subtype": "reservoir", "municipality": "unknown", "geometry_type": "polygon", "status": "active", "source_ref": "PR_Geodata/water_reservoir.geojson (OSM)", "evidence_tier": "T3", "confidence": 60, "review_status": "needs_review", "lat": 18.019073, "lon": -66.598115}
{"asset_id": "RSV_539841524", "asset_name": "Reservoir 539841524", "asset_type": "water", "asset_subtype": "reservoir", "municipality": "unknown", "geometry_type": "polygon", "status": "active", "source_ref": "PR_Geodata/water_reservoir.geojson (OSM)", "evidence_tier": "T3", "confidence": 60, "review_status": "needs_review", "lat": 18.017806, "lon": -66.63519}
{"asset_id": "RSV_539841526", "asset_name": "Reservoir 539841526", "asset_type": "water", "asset_subtype": "reservoir", "municipality": "unknown", "geometry_type": "polygon", "status": "active", "source_ref": "PR_Geodata/water_reservoir.geojson (OSM)", "evidence_tier": "T3", "confidence": 60, "review_status": "needs_review", "lat": 18.016736, "lon": -66.636099}
{"asset_id": "RSV_540439692", "asset_name": "Reservoir 540439692", "asset_type": "water", "asset_subtype": "reservoir", "municipality": "unknown", "geometry_type": "polygon", "status": "active", "source_ref": "PR_Geodata/water_reservoir.geojson (OSM)", "evidence_tier": "T3", "confidence": 60, "review_status": "needs_review", "lat": 18.456156, "lon": -66.537069}
{"asset_id": "RSV_540888331", "asset_name": "Reservoir 540888331", "asset_type": "water", "asset_subtype": "reservoir", "municipality": "unknown", "geometry_type": "polygon", "status": "active", "source_ref": "PR_Geodata/water_reservoir.geojson (OSM)", "evidence_tier": "T3", "confidence": 60, "review_status": "needs_review", "lat": 18.448605, "lon": -66.47397}
{"asset_id": "RSV_542077433", "asset_name": "Reservoir 542077433", "asset_type": "water", "asset_subtype": "reservoir", "municipality": "unknown", "geometry_type": "polygon", "status": "active", "source_ref": "PR_Geodata/water_reservoir.geojson (OSM)", "evidence_tier": "T3", "confidence": 60, "review_status": "needs_review", "lat": 18.04252, "lon": -66.951908}
{"asset_id": "RSV_543139684", "asset_name": "Reservoir 543139684", "asset_type": "water", "asset_subtype": "reservoir", "municipality": "unknown", "geometry_type": "polygon", "status": "active", "source_ref": "PR_Geodata/water_reservoir.geojson (OSM)", "evidence_tier": "T3", "confidence": 60, "review_status": "needs_review", "lat": 18.357134, "lon": -66.813585}
{"asset_id": "RSV_543160669", "asset_name": "Reservoir 543160669", "asset_type": "water", "asset_subtype": "reservoir", "municipality": "unknown", "geometry_type": "polygon", "status": "active", "source_ref": "PR_Geodata/water_reservoir.geojson (OSM)", "evidence_tier": "T3", "confidence": 60, "review_status": "needs_review", "lat": 18.375619, "lon": -66.769312}
{"asset_id": "RSV_543162143", "asset_name": "Reservoir 543162143", "asset_type": "water", "asset_subtype": "reservoir", "municipality": "unknown", "geometry_type": "polygon", "status": "active", "source_ref": "PR_Geodata/water_reservoir.geojson (OSM)", "evidence_tier": "T3", "confidence": 60, "review_status": "needs_review", "lat": 18.394222, "lon": -66.768956}
{"asset_id": "RSV_543162152", "asset_name": "Reservoir 543162152", "asset_type": "water", "asset_subtype": "reservoir", "municipality": "unknown", "geometry_type": "polygon", "status": "active", "source_ref": "PR_Geodata/water_reservoir.geojson (OSM)", "evidence_tier": "T3", "confidence": 60, "review_status": "needs_review", "lat": 18.391602, "lon": -66.774351}
{"asset_id": "RSV_543171012", "asset_name": "Reservoir 543171012", "asset_type": "water", "asset_subtype": "reservoir", "municipality": "unknown", "geometry_type": "polygon", "status": "active", "source_ref": "PR_Geodata/water_reservoir.geojson (OSM)", "evidence_tier": "T3", "confidence": 60, "review_status": "needs_review", "lat": 18.374218, "lon": -66.830287}
{"asset_id": "RSV_586665209", "asset_name": "Reservoir 586665209", "asset_type": "water", "asset_subtype": "reservoir", "municipality": "unknown", "geometry_type": "polygon", "status": "active", "source_ref": "PR_Geodata/water_reservoir.geojson (OSM)", "evidence_tier": "T3", "confidence": 60, "review_status": "needs_review", "lat": 18.031823, "lon": -66.958994}
{"asset_id": "RSV_586665297", "asset_name": "Reservoir 586665297", "asset_type": "water", "asset_subtype": "reservoir", "municipality": "unknown", "geometry_type": "polygon", "status": "active", "source_ref": "PR_Geodata/water_reservoir.geojson (OSM)", "evidence_tier": "T3", "confidence": 60, "review_status": "needs_review", "lat": 18.036491, "lon": -66.95537}
{"asset_id": "RSV_717378330", "asset_name": "Reservoir 717378330", "asset_type": "water", "asset_subtype": "reservoir", "municipality": "unknown", "geometry_type": "polygon", "status": "active", "source_ref": "PR_Geodata/water_reservoir.geojson (OSM)", "evidence_tier": "T3", "confidence": 60, "review_status": "needs_review", "lat": 18.034824, "lon": -67.094125}
{"asset_id": "RSV_886052646", "asset_name": "Lago N\u00ba 1", "asset_type": "water", "asset_subtype": "reservoir", "municipality": "unknown", "geometry_type": "polygon", "status": "active", "source_ref": "PR_Geodata/water_reservoir.geojson (OSM)", "evidence_tier": "T3", "confidence": 60, "review_status": "needs_review", "lat": 18.065669, "lon": -66.562716}
{"asset_id": "RSV_886053360", "asset_name": "Represa de Mayaguez", "asset_type": "water", "asset_subtype": "reservoir", "municipality": "unknown", "geometry_type": "polygon", "status": "active", "source_ref": "PR_Geodata/water_reservoir.geojson (OSM)", "evidence_tier": "T3", "confidence": 60, "review_status": "needs_review", "lat": 18.198581, "lon": -67.077867}
{"asset_id": "RSV_886053489", "asset_name": "Lago N\u00ba 3", "asset_type": "water", "asset_subtype": "reservoir", "municipality": "unknown", "geometry_type": "polygon", "status": "active", "source_ref": "PR_Geodata/water_reservoir.geojson (OSM)", "evidence_tier": "T3", "confidence": 60, "review_status": "needs_review", "lat": 18.059346, "lon": -66.56793}
{"asset_id": "RSV_1096359184", "asset_name": "Cuenca Pluvial", "asset_type": "water", "asset_subtype": "reservoir", "municipality": "unknown", "geometry_type": "polygon", "status": "active", "source_ref": "PR_Geodata/water_reservoir.geojson (OSM)", "evidence_tier": "T3", "confidence": 60, "review_status": "needs_review", "lat": 18.477431, "lon": -67.160533}
